[
{
"code":"AAA",
"lat":"-17.3595",
"lon":"-145.494",
"name":"AnaaAirport",
"city":"Anaa",
"country":"FrenchPolynesia"},
{
"code":"AAE",
"lat":"36.8236",
"lon":"7.8103",
"name":"ElMellahAirport",
"city":"ElTarf",
"country":"Algeria"},
{
"code":"AAL",
"lat":"57.0952",
"lon":"9.85606",
"name":"AalborgAirport",
"city":"Norresundby",
"country":"Denmark"},
{
"code":"AAM",
"lat":"-24.8",
"lon":"31.5333",
"name":"MalaMala",
"city":"MalaMala",
"country":"SouthAfrica"},
{
"code":"AAN",
"lat":"24.25",
"lon":"55.75",
"name":"AlAinAirport",
"city":"AynalFaydah",
"country":"UnitedArabEmirates"},
{
"code":"AAQ",
"lat":"44.9",
"lon":"37.3167",
"name":"OlkhovkaAirport",
"city":"Novorossiysk",
"country":"Russia"},
{
"code":"AAR",
"lat":"56.3088",
"lon":"10.6154",
"name":"TirstrupAirport",
"city":"Kolind",
"country":"Denmark"},
{
"code":"AAT",
"lat":"47.7406",
"lon":"88.0845",
"name":"AltayAirport",
"city":"Altay",
"country":"China"},
{
"code":"AAX",
"lat":"-19.5603",
"lon":"-46.9653",
"name":"RomeuZumaAirport",
"city":"Araxá",
"country":"Brazil"},
{
"code":"AAY",
"lat":"16.1947",
"lon":"52.1694",
"name":"AlGaidahAirport",
"city":"AlGhaydah",
"country":"Yemen"},
{
"code":"ABA",
"lat":"53.7167",
"lon":"91.4333",
"name":"Abakan",
"city":"Abakan",
"country":"RussianFederation"},
{
"code":"ABC",
"lat":"38.9833",
"lon":"-1.85",
"name":"LosLlanos",
"city":"Albacete",
"country":"Spain"},
{
"code":"ABD",
"lat":"30.3374",
"lon":"48.3032",
"name":"",
"city":"Abadan",
"country":"Iran"},
{
"code":"ABE",
"lat":"40.6514",
"lon":"-75.4342",
"name":"LehighValleyInternationalAirport",
"city":"Allentown",
"country":"UnitedStates"},
{
"code":"ABI",
"lat":"32.4164",
"lon":"-99.6803",
"name":"AbileneRegionalAirport",
"city":"Abilene",
"country":"UnitedStates"},
{
"code":"ABJ",
"lat":"5.2556",
"lon":"-3.9292",
"name":"AbidjanPortBouetAirport",
"city":"Abidjan",
"country":"IvoryCoast"},
{
"code":"ABK",
"lat":"6.73719",
"lon":"44.2797",
"name":"KabriDar",
"city":"KabriDar",
"country":"Ethiopia"},
{
"code":"ABL",
"lat":"67.1058",
"lon":"-157.854",
"name":"AmblerAirport",
"city":"Kiana",
"country":"UnitedStates"},
{
"code":"ABM",
"lat":"-10.9438",
"lon":"142.453",
"name":"BamagaAirport",
"city":"Seisia",
"country":"Australia"},
{
"code":"ABQ",
"lat":"35.0494",
"lon":"-106.625",
"name":"AlbuquerqueInternationalAirport",
"city":"Albuquerque",
"country":"UnitedStates"},
{
"code":"ABR",
"lat":"45.4536",
"lon":"-98.4189",
"name":"AberdeenRegionalAirport",
"city":"Aberdeen",
"country":"UnitedStates"},
{
"code":"ABS",
"lat":"22.3722",
"lon":"31.6125",
"name":"AbuSimbelAirport",
"city":"AbuSimbel",
"country":"Egypt"},
{
"code":"ABT",
"lat":"20.2961",
"lon":"41.6342",
"name":"AlBahaAirport",
"city":"AlAqiq",
"country":"SaudiArabia"},
{
"code":"ABV",
"lat":"9.0056",
"lon":"7.2661",
"name":"AbujaInternationalAirport",
"city":"Gwagwa",
"country":"Nigeria"},
{
"code":"ABX",
"lat":"-36.0678",
"lon":"146.956",
"name":"AlburyAirport",
"city":"Albury",
"country":"Australia"},
{
"code":"ABY",
"lat":"31.5328",
"lon":"-84.1867",
"name":"SouthwestGeorgiaRegionalAirport",
"city":"Albany",
"country":"UnitedStates"},
{
"code":"ABZ",
"lat":"57.2004",
"lon":"-2.20373",
"name":"AberdeenDyceInternationalAirport",
"city":"Aberdeen",
"country":"UnitedKingdom"},
{
"code":"ACA",
"lat":"16.7561",
"lon":"-99.7536",
"name":"GeneralJuanNAlvarezInternationalAirport",
"city":"Acapulco",
"country":"Mexico"},
{
"code":"ACC",
"lat":"5.5964",
"lon":"-0.17",
"name":"KotokaInternationalAirport",
"city":"Accra",
"country":"Ghana"},
{
"code":"ACE",
"lat":"28.9521",
"lon":"-13.6085",
"name":"ArrecifeAirport",
"city":"SanBartolomé",
"country":"Spain"},
{
"code":"ACH",
"lat":"47.4887",
"lon":"9.55376",
"name":"AltenrheinAirport",
"city":"Altenrhein",
"country":"Switzerland"},
{
"code":"ACI",
"lat":"49.7134",
"lon":"-2.22089",
"name":"TheBlayeAirport",
"city":"St.PeterPort",
"country":"UnitedKingdom"},
{
"code":"ACK",
"lat":"41.2568",
"lon":"-70.0649",
"name":"NantucketMemorialAirport",
"city":"Nantucket",
"country":"UnitedStates"},
{
"code":"ACP",
"lat":"68.1609",
"lon":"-151.696",
"name":"SahandAirport",
"city":"Sahand",
"country":"Iran"},
{
"code":"ACS",
"lat":"47.7006",
"lon":"18.0064",
"name":"",
"city":"Achinsk",
"country":"Russia"},
{
"code":"ACT",
"lat":"31.609",
"lon":"-97.2234",
"name":"WacoRegionalAirport",
"city":"Waco",
"country":"UnitedStates"},
{
"code":"ACV",
"lat":"40.9698",
"lon":"-124.108",
"name":"ArcataAirport",
"city":"Mckinleyville",
"country":"UnitedStates"},
{
"code":"ACX",
"lat":"25.0887",
"lon":"104.89",
"name":"Xingyi",
"city":"Xingyi",
"country":"China"},
{
"code":"ACY",
"lat":"39.4512",
"lon":"-74.5716",
"name":"AtlanticCityInternationalAirport",
"city":"EggHarborCity",
"country":"UnitedStates"},
{
"code":"ACZ",
"lat":"31.0385",
"lon":"61.4962",
"name":"ZabolA/P",
"city":"Zabol",
"country":"Iran"},
{
"code":"ADA",
"lat":"36.9811",
"lon":"35.2803",
"name":"SakirpasaAirport",
"city":"Adana",
"country":"Turkey"},
{
"code":"ADB",
"lat":"38.32",
"lon":"27.1603",
"name":"GaziemirAirport",
"city":"Azmir",
"country":"Turkey"},
{
"code":"ADD",
"lat":"8.9783",
"lon":"38.8011",
"name":"BoleInternationalAirport",
"city":"AddisAbaba",
"country":"Ethiopia"},
{
"code":"ADE",
"lat":"12.8278",
"lon":"45.0306",
"name":"AdenInternationalAirport",
"city":"AshShaykhUthman",
"country":"Yemen"},
{
"code":"ADF",
"lat":"37.8099",
"lon":"38.3357",
"name":"AdiyamanAirport",
"city":"Adiyaman",
"country":"Turkey"},
{
"code":"ADJ",
"lat":"31.973",
"lon":"35.9822",
"name":"AlMatarAirport",
"city":"Amman",
"country":"Jordan"},
{
"code":"ADK",
"lat":"51.88",
"lon":"-176.639",
"name":"AdakAirport",
"city":"Adak",
"country":"UnitedStates"},
{
"code":"ADL",
"lat":"-34.9464",
"lon":"138.529",
"name":"AdelaideInternationalAirport",
"city":"Adelaide",
"country":"Australia"},
{
"code":"ADQ",
"lat":"57.7545",
"lon":"-152.512",
"name":"KodiakAirport",
"city":"Kodiak",
"country":"UnitedStates"},
{
"code":"ADU",
"lat":"38.2465",
"lon":"48.2951",
"name":"ArdabilAirport",
"city":"Ardabil",
"country":"Iran"},
{
"code":"ADX",
"lat":"56.377",
"lon":"-2.86117",
"name":"LeucharsAirport",
"city":"St.Andrews",
"country":"UnitedKingdom"},
{
"code":"ADZ",
"lat":"12.5811",
"lon":"-81.7092",
"name":"SesquicentenarioAirport",
"city":"SanAndrés",
"country":"Colombia"},
{
"code":"AEH",
"lat":"13.8486",
"lon":"20.8472",
"name":"AbecheAirport",
"city":"Abéché",
"country":"Chad"},
{
"code":"AEP",
"lat":"-34.5617",
"lon":"-58.4113",
"name":"AeroparqueJorgeNewbery",
"city":"BuenosAires",
"country":"Argentina"},
{
"code":"AER",
"lat":"43.447",
"lon":"39.9552",
"name":"AdlerAirport",
"city":"Sochi",
"country":"Russia"},
{
"code":"AES",
"lat":"62.5607",
"lon":"6.11129",
"name":"VigraAirport",
"city":"Vigra",
"country":"Norway"},
{
"code":"AET",
"lat":"66.55",
"lon":"-152.65",
"name":"AllakaketAirport",
"city":"Allakaket",
"country":"UnitedStates"},
{
"code":"AEX",
"lat":"31.323",
"lon":"-92.5417",
"name":"AlexandriaInternationalAirport",
"city":"Alexandria",
"country":"UnitedStates"},
{
"code":"AEY",
"lat":"65.6561",
"lon":"-18.0923",
"name":"AkureyriAirport",
"city":"Akureyri",
"country":"Iceland"},
{
"code":"AFA",
"lat":"-34.5886",
"lon":"-68.4028",
"name":"SanRafaelAirport",
"city":"SanRafael",
"country":"Argentina"},
{
"code":"AFL",
"lat":"-9.8661",
"lon":"-56.1044",
"name":"AltaFlorestaAirport",
"city":"AltaFloresta",
"country":"Brazil"},
{
"code":"AFS",
"lat":"41.6136",
"lon":"64.2331",
"name":"ZarafshanAirport",
"city":"Zarafshan",
"country":"Uzbekistan"},
{
"code":"AFT",
"lat":"-9.18333",
"lon":"160.95",
"name":"AfutaraAerodrome",
"city":"Afutara",
"country":"SolomonIslands"},
{
"code":"AFZ",
"lat":"36.1903",
"lon":"57.7094",
"name":"SabzevarAirport",
"city":"Sabzevar",
"country":"Iran"},
{
"code":"AGA",
"lat":"30.3833",
"lon":"-9.55",
"name":"AlmassiraAirport",
"city":"Agadir",
"country":"Morocco"},
{
"code":"AGF",
"lat":"44.1736",
"lon":"0.59223",
"name":"LaGarenneAirport",
"city":"Laplume",
"country":"France"},
{
"code":"AGH",
"lat":"56.2873",
"lon":"12.8675",
"name":"AngelholmAirport",
"city":"Angelholm",
"country":"Sweden"},
{
"code":"AGL",
"lat":"-9.33333",
"lon":"149.15",
"name":"Wanigela",
"city":"Wanigela",
"country":"PapuaNewGuinea"},
{
"code":"AGM",
"lat":"65.6667",
"lon":"-37.6667",
"name":"AngmagssalikAirport",
"city":"Angmassalik",
"country":"Greenland"},
{
"code":"AGN",
"lat":"57.4996",
"lon":"-134.577",
"name":"AngoonAirport",
"city":"Angoon",
"country":"UnitedStates"},
{
"code":"AGP",
"lat":"36.6749",
"lon":"-4.49298",
"name":"MalagaAirport",
"city":"Malaga",
"country":"Spain"},
{
"code":"AGR",
"lat":"27.1632",
"lon":"77.9788",
"name":"AgraAirport",
"city":"Agra",
"country":"India"},
{
"code":"AGS",
"lat":"33.3735",
"lon":"-81.9732",
"name":"BushFieldAirport",
"city":"Augusta",
"country":"UnitedStates"},
{
"code":"AGT",
"lat":"-25.5266",
"lon":"-54.6226",
"name":"AlejoGarciaAirport",
"city":"PresidenteFranco",
"country":"Paraguay"},
{
"code":"AGU",
"lat":"21.7047",
"lon":"-102.317",
"name":"AguascalientesAirport",
"city":"Aguascalientes",
"country":"Mexico"},
{
"code":"AGV",
"lat":"9.55194",
"lon":"-69.2367",
"name":"Acarigua",
"city":"Acarigua",
"country":"Venezuela"},
{
"code":"AGX",
"lat":"10.8415",
"lon":"72.175",
"name":"AgattiIslandAirport",
"city":"AgattiIsland",
"country":"India"},
{
"code":"AHB",
"lat":"18.24",
"lon":"42.6556",
"name":"AbhaAirport",
"city":"Hajlah",
"country":"SaudiArabia"},
{
"code":"AHC",
"lat":"40.2664",
"lon":"-120.151",
"name":"AmedeeArmyAirField",
"city":"Herlong",
"country":"UnitedStates"},
{
"code":"AHE",
"lat":"-14.5",
"lon":"-1.3",
"name":"AheAirport",
"city":"Ahe",
"country":"FrenchPolynesia"},
{
"code":"AHO",
"lat":"40.6319",
"lon":"8.29279",
"name":"AlgheroAirport",
"city":"Alghero",
"country":"Italy"},
{
"code":"AHS",
"lat":"15.4534",
"lon":"-84.4041",
"name":"AhuasAirport",
"city":"Auas",
"country":"Honduras"},
{
"code":"AHU",
"lat":"35.1781",
"lon":"-3.8383",
"name":"CoteduRifAirport",
"city":"AlHoceima",
"country":"Morocco"},
{
"code":"AIA",
"lat":"42.0622",
"lon":"-102.81",
"name":"AllianceMunicipalAirport",
"city":"Alliance",
"country":"UnitedStates"},
{
"code":"AIN",
"lat":"70.6139",
"lon":"-159.857",
"name":"WainwrightAirport",
"city":"Wainwright",
"country":"UnitedStates"},
{
"code":"AIT",
"lat":"-18.8299",
"lon":"-159.765",
"name":"AitutakiAirport",
"city":"Aitutaki",
"country":"CookIslands"},
{
"code":"AIU",
"lat":"-20.0333",
"lon":"-158.1",
"name":"AtiuIsland",
"city":"AtiuIsland",
"country":"CookIslands"},
{
"code":"AJA",
"lat":"41.9204",
"lon":"8.79778",
"name":"CampoDellOroAirport",
"city":"Ajaccio",
"country":"France"},
{
"code":"AJF",
"lat":"29.7897",
"lon":"40.1039",
"name":"AlJoufAirport",
"city":"Sakakah",
"country":"SaudiArabia"},
{
"code":"AJI",
"lat":"39.7239",
"lon":"43.0618",
"name":"AgriAirport",
"city":"Agrı",
"country":"Turkey"},
{
"code":"AJL",
"lat":"23.7361",
"lon":"92.8083",
"name":"AizwalAirport",
"city":"Aizawl",
"country":"India"},
{
"code":"AJN",
"lat":"-12.2234",
"lon":"44.3709",
"name":"Comoros",
"city":"Anjouan",
"country":"Comoros"},
{
"code":"AJR",
"lat":"65.592",
"lon":"19.2647",
"name":"ArvidsjaurAirport",
"city":"Arvidsjaur",
"country":"Sweden"},
{
"code":"AJU",
"lat":"-10.985",
"lon":"-37.0733",
"name":"SantaMariaAirport",
"city":"Aracaju",
"country":"Brazil"},
{
"code":"AKA",
"lat":"32.7026",
"lon":"108.912",
"name":"AnkangAirport",
"city":"Ankang",
"country":"China"},
{
"code":"AKB",
"lat":"52.2217",
"lon":"-174.204",
"name":"AtkaAirport",
"city":"Atka",
"country":"UnitedStates"},
{
"code":"AKF",
"lat":"24.1819",
"lon":"23.3189",
"name":"KufraAirport",
"city":"Kufrah",
"country":"Libya"},
{
"code":"AKI",
"lat":"60.8866",
"lon":"-161.218",
"name":"AkiakAirport",
"city":"Bethel",
"country":"UnitedStates"},
{
"code":"AKJ",
"lat":"43.665",
"lon":"142.453",
"name":"AsahikawaAirport",
"city":"Asahikawa-shi",
"country":"Japan"},
{
"code":"AKK",
"lat":"56.95",
"lon":"-154.167",
"name":"AkhiokAirport",
"city":"Kodiak",
"country":"UnitedStates"},
{
"code":"AKL",
"lat":"-37.0085",
"lon":"174.782",
"name":"AucklandInternationalAirport",
"city":"ManukauCity",
"country":"NewZealand"},
{
"code":"AKN",
"lat":"58.6775",
"lon":"-156.655",
"name":"KingSalmonAirport",
"city":"KingSalmon",
"country":"UnitedStates"},
{
"code":"AKP",
"lat":"68.1916",
"lon":"-151.79",
"name":"AnaktuvukPassAirport",
"city":"AnaktuvukPass",
"country":"UnitedStates"},
{
"code":"AKS",
"lat":"-27.6667",
"lon":"27.3167",
"name":"KroonstadAirport",
"city":"Kroonstad",
"country":"SouthAfrica"},
{
"code":"AKU",
"lat":"41.171",
"lon":"80.1982",
"name":"AksuAirport",
"city":"Aksu",
"country":"China"},
{
"code":"AKV",
"lat":"60.8142",
"lon":"-78.1509",
"name":"AkulivikAirport",
"city":"Chisasibi",
"country":"Canada"},
{
"code":"AKX",
"lat":"50.2362",
"lon":"57.2115",
"name":"AktyubinskAirport",
"city":"Aqtobe",
"country":"Kazakhstan"},
{
"code":"AKY",
"lat":"20.1303",
"lon":"92.8803",
"name":"SittweAirport",
"city":"Sittwe",
"country":"Myanmar"},
{
"code":"ALA",
"lat":"43.3608",
"lon":"77.0319",
"name":"AlmaAtaAirport",
"city":"Almaty",
"country":"Kazakhstan"},
{
"code":"ALB",
"lat":"42.7426",
"lon":"-73.809",
"name":"AlbanyInternationalAirport",
"city":"Latham",
"country":"UnitedStates"},
{
"code":"ALC",
"lat":"38.2844",
"lon":"-0.5576",
"name":"AlicanteAirport",
"city":"Elx",
"country":"Spain"},
{
"code":"ALF",
"lat":"69.9793",
"lon":"23.3571",
"name":"AltaAirport",
"city":"Alta",
"country":"Norway"},
{
"code":"ALG",
"lat":"36.6993",
"lon":"3.21935",
"name":"HouariBoumedieneAirport",
"city":"Algiers",
"country":"Algeria"},
{
"code":"ALH",
"lat":"-34.9447",
"lon":"117.808",
"name":"AlbanyAirport",
"city":"Albany",
"country":"Australia"},
{
"code":"ALM",
"lat":"32.8407",
"lon":"-105.994",
"name":"AlamogordoWhiteSandsRegionalAirport",
"city":"Alamogordo",
"country":"UnitedStates"},
{
"code":"ALO",
"lat":"42.5509",
"lon":"-92.3951",
"name":"WaterlooMunicipalAirport",
"city":"Waterloo",
"country":"UnitedStates"},
{
"code":"ALP",
"lat":"36.1808",
"lon":"37.2267",
"name":"AleppoInternationalAirport",
"city":"Djibrine",
"country":"Syria"},
{
"code":"ALS",
"lat":"37.4444",
"lon":"-105.865",
"name":"SanLuisValleyRegionalAirport",
"city":"Alamosa",
"country":"UnitedStates"},
{
"code":"ALW",
"lat":"46.0879",
"lon":"-118.283",
"name":"WallaWallaRegionalAirport",
"city":"WallaWalla",
"country":"UnitedStates"},
{
"code":"ALY",
"lat":"31.1845",
"lon":"29.9491",
"name":"An-NuzhahAirport",
"city":"Alexandria",
"country":"Egypt"},
{
"code":"ALZ",
"lat":"56.8988",
"lon":"-154.246",
"name":"AlitakSeaplaneBase",
"city":"Alitak",
"country":"UnitedStates"},
{
"code":"AMA",
"lat":"35.2177",
"lon":"-101.706",
"name":"AmarilloInternationalAirport",
"city":"Amarillo",
"country":"UnitedStates"},
{
"code":"AMD",
"lat":"23.0728",
"lon":"72.6328",
"name":"SardarVallabhbhaiPatelInternationalAirport",
"city":"Ahmedabad",
"country":"India"},
{
"code":"AMH",
"lat":"6.01327",
"lon":"37.5405",
"name":"Ethiopia",
"city":"ArbaMintch",
"country":"Ethiopia"},
{
"code":"AMI",
"lat":"-8.562",
"lon":"116.098",
"name":"Selaparang",
"city":"Mataram",
"country":"Indonesia"},
{
"code":"AMM",
"lat":"31.7231",
"lon":"35.9936",
"name":"QueenAliaInternationalAirport",
"city":"Amman",
"country":"Jordan"},
{
"code":"AMQ",
"lat":"-3.7067",
"lon":"128.078",
"name":"PattimuraAirport",
"city":"Ambon",
"country":"Indonesia"},
{
"code":"AMS",
"lat":"52.3122",
"lon":"4.77511",
"name":"SchipholAirport",
"city":"SchipholZuid",
"country":"Netherlands"},
{
"code":"AMV",
"lat":"69.7638",
"lon":"61.5586",
"name":"AmdermaAirport",
"city":"Nar'yan-Mar",
"country":"Russia"},
{
"code":"AMY",
"lat":"38.4819",
"lon":"-100.608",
"name":"Ambatomainty",
"city":"Ambatomainty",
"country":"Madagascar"},
{
"code":"ANC",
"lat":"61.1767",
"lon":"-149.961",
"name":"AnchorageInternationalAirport",
"city":"Anchorage",
"country":"UnitedStates"},
{
"code":"ANE",
"lat":"47.5603",
"lon":"-0.312222",
"name":"Aéroportd'Angers-Marcé",
"city":"Seiches-sur-le-Loir",
"country":"France"},
{
"code":"ANF",
"lat":"-23.44",
"lon":"-70.4419",
"name":"CerroMorenoInternationalAirport",
"city":"Antofagasta",
"country":"Chile"},
{
"code":"ANG",
"lat":"45.7274",
"lon":"0.21835",
"name":"BrieChampniersAirport",
"city":"Champniers",
"country":"France"},
{
"code":"ANI",
"lat":"61.5742",
"lon":"-159.535",
"name":"AniakAirport",
"city":"Bethel",
"country":"UnitedStates"},
{
"code":"ANM",
"lat":"-18.7772",
"lon":"46.8543",
"name":"Madagascar",
"city":"Antalaha",
"country":"Madagascar"},
{
"code":"ANR",
"lat":"51.1896",
"lon":"4.45236",
"name":"DeurneAirport",
"city":"Antwerp",
"country":"Belgium"},
{
"code":"ANU",
"lat":"17.1375",
"lon":"-61.79",
"name":"VCBirdInternationalAirport",
"city":"Carlisle",
"country":"AntiguaandBarbuda"},
{
"code":"ANV",
"lat":"62.65",
"lon":"-160.217",
"name":"AnvikAirport",
"city":"Anvik",
"country":"UnitedStates"},
{
"code":"ANX",
"lat":"69.3088",
"lon":"16.1236",
"name":"AndoyaAirport",
"city":"Andenes",
"country":"Norway"},
{
"code":"AOC",
"lat":"50.9794",
"lon":"12.5111",
"name":"AltenburgNobitz",
"city":"Altenburg",
"country":"Germany"},
{
"code":"AOE",
"lat":"39.7905",
"lon":"30.5172",
"name":"AnadoluUniversityAirport",
"city":"Eskişehir",
"country":"Turkey"},
{
"code":"AOI",
"lat":"43.6158",
"lon":"13.3634",
"name":"FalconaraAirport",
"city":"FalconaraMarittima",
"country":"Italy"},
{
"code":"AOJ",
"lat":"40.7357",
"lon":"140.69",
"name":"AomoriAirport",
"city":"Aomori-shi",
"country":"Japan"},
{
"code":"AOK",
"lat":"35.4239",
"lon":"27.1472",
"name":"KarpathosAirport",
"city":"Karpathos",
"country":"Greece"},
{
"code":"AOO",
"lat":"40.2952",
"lon":"-78.324",
"name":"Altoona-BlairCountyAirport",
"city":"Martinsburg",
"country":"UnitedStates"},
{
"code":"AOR",
"lat":"6.1947",
"lon":"100.404",
"name":"SultanAbdulHalimAirport",
"city":"KepalaBatas",
"country":"Malaysia"},
{
"code":"AOS",
"lat":"57.4672",
"lon":"-153.839",
"name":"AmookBaySeaplaneBase",
"city":"Amook",
"country":"UnitedStates"},
{
"code":"APA",
"lat":"39.5752",
"lon":"-104.845",
"name":"CentennialAirport",
"city":"Englewood",
"country":"UnitedStates"},
{
"code":"APF",
"lat":"26.1483",
"lon":"-81.7745",
"name":"NaplesMunicipalAirport",
"city":"Naples",
"country":"UnitedStates"},
{
"code":"APK",
"lat":"-8.64687",
"lon":"-131.787",
"name":"FrenchPolynesia",
"city":"Apataki",
"country":"FrenchPolynesia"},
{
"code":"APL",
"lat":"-15.1",
"lon":"39.2814",
"name":"NampulaAirport",
"city":"Nampula",
"country":"Mozambique"},
{
"code":"APN",
"lat":"45.07",
"lon":"-83.5683",
"name":"AlpenaCountyRegionalAirport",
"city":"Alpena",
"country":"UnitedStates"},
{
"code":"APO",
"lat":"7.88361",
"lon":"-76.6321",
"name":"ApartadoAirport",
"city":"Apartadó",
"country":"Colombia"},
{
"code":"APW",
"lat":"-13.8255",
"lon":"-171.993",
"name":"FaleoloAirport",
"city":"Apia",
"country":"Samoa"},
{
"code":"AQG",
"lat":"30.5167",
"lon":"117.033",
"name":"AnqingAirport",
"city":"Anqing",
"country":"China"},
{
"code":"AQI",
"lat":"28.3317",
"lon":"46.13",
"name":"HafrAlBatinAirport",
"city":"Qaisumah",
"country":"SaudiArabia"},
{
"code":"AQJ",
"lat":"29.6119",
"lon":"35.0178",
"name":"AqabaInternationalAirport",
"city":"Aqaba",
"country":"Jordan"},
{
"code":"AQP",
"lat":"-16.3372",
"lon":"-71.5692",
"name":"RodriguezBallonAirport",
"city":"Arequipa",
"country":"Peru"},
{
"code":"ARC",
"lat":"68.1167",
"lon":"-145.583",
"name":"ArcticVillageAirport",
"city":"ArcticVillage",
"country":"UnitedStates"},
{
"code":"ARD",
"lat":"35.1437",
"lon":"-93.1848",
"name":"AlorIsland",
"city":"AlorIsland",
"country":"Indonesia"},
{
"code":"ARH",
"lat":"64.4465",
"lon":"40.4242",
"name":"ArkhangelskAirport",
"city":"Arkhangel'sk",
"country":"Russia"},
{
"code":"ARI",
"lat":"-18.3458",
"lon":"-70.3358",
"name":"ChacallutaAirport",
"city":"Arica",
"country":"Chile"},
{
"code":"ARK",
"lat":"-3.36515",
"lon":"36.6738",
"name":"ArushaAirport",
"city":"Arusha",
"country":"Tanzania"},
{
"code":"ARM",
"lat":"-30.5308",
"lon":"151.618",
"name":"ArmidaleAirport",
"city":"Armidale",
"country":"Australia"},
{
"code":"ARN",
"lat":"59.6521",
"lon":"17.9317",
"name":"ArlandaAirport",
"city":"Märst",
"country":"Sweden"},
{
"code":"ART",
"lat":"43.9942",
"lon":"-76.0232",
"name":"WatertownInternationalAirport",
"city":"Dexter",
"country":"UnitedStates"},
{
"code":"ARU",
"lat":"-21.1436",
"lon":"-50.4261",
"name":"AracatubaAirport",
"city":"Araçatuba",
"country":"Brazil"},
{
"code":"ARV",
"lat":"45.9296",
"lon":"-89.7371",
"name":"Lakelan-NobleF.LeeMemerialFieldAirport",
"city":"Woodruff",
"country":"UnitedStates"},
{
"code":"ARW",
"lat":"46.1805",
"lon":"21.2609",
"name":"CealaAirport",
"city":"Arad",
"country":"Romania"},
{
"code":"ASA",
"lat":"31.4124",
"lon":"-97.0528",
"name":"Assab",
"city":"Assab",
"country":"Ethiopia"},
{
"code":"ASB",
"lat":"37.9842",
"lon":"58.3294",
"name":"AshkhabadNorthwestAirport",
"city":"Ashgabat",
"country":"Turkmenistan"},
{
"code":"ASD",
"lat":"24.6978",
"lon":"-77.7961",
"name":"AndrosTownAirport",
"city":"FreshCreek",
"country":"Bahamas"},
{
"code":"ASE",
"lat":"39.2197",
"lon":"-106.864",
"name":"AspenPitkinCountyAirport-SardyField",
"city":"Aspen",
"country":"UnitedStates"},
{
"code":"ASF",
"lat":"46.2971",
"lon":"48.0515",
"name":"AstrakhanSoutheastAirport",
"city":"Astrakhan'",
"country":"Russia"},
{
"code":"ASI",
"lat":"-7.93586",
"lon":"-14.4081",
"name":"WideawakeFld",
"city":"Georgetown,AscensionIsland",
"country":"St.Helena"},
{
"code":"ASJ",
"lat":"28.431",
"lon":"129.712",
"name":"AmamiAirport",
"city":"AmamiOShima",
"country":"Japan"},
{
"code":"ASM",
"lat":"15.2906",
"lon":"38.9103",
"name":"YohannesIvInternationalAirport",
"city":"Asmara",
"country":"Eritrea"},
{
"code":"ASO",
"lat":"10.0611",
"lon":"34.5344",
"name":"Ethiopia",
"city":"Asosa",
"country":"Ethiopia"},
{
"code":"ASP",
"lat":"-23.802",
"lon":"133.892",
"name":"AliceSpringsAirport",
"city":"AliceSprings",
"country":"Australia"},
{
"code":"ASR",
"lat":"38.7708",
"lon":"35.4939",
"name":"ErkiletAirport",
"city":"Kayseri",
"country":"Turkey"},
{
"code":"ASU",
"lat":"-25.2397",
"lon":"-57.5189",
"name":"SilvioPettirossiInternationalAirport",
"city":"ColoniaMarianoRoqueAlonso",
"country":"Paraguay"},
{
"code":"ASV",
"lat":"-2.63333",
"lon":"37.25",
"name":"Amboseli",
"city":"Amboseli",
"country":"Kenya"},
{
"code":"ASW",
"lat":"23.965",
"lon":"32.8217",
"name":"AswanAirport",
"city":"Aswan",
"country":"Egypt"},
{
"code":"ATB",
"lat":"17.7",
"lon":"33.9833",
"name":"Atbara",
"city":"Atbara",
"country":"Sudan"},
{
"code":"ATC",
"lat":"24.6287",
"lon":"-75.6734",
"name":"Arthur'sTownAirport",
"city":"ArthurTown",
"country":"Bahamas"},
{
"code":"ATD",
"lat":"-8.86667",
"lon":"161.033",
"name":"Atoifi",
"city":"Atoifi",
"country":"SolomonIslands"},
{
"code":"ATH",
"lat":"37.8937",
"lon":"23.7235",
"name":"EleftheriosVenizelosInternationalAirport",
"city":"Athens",
"country":"Greece"},
{
"code":"ATK",
"lat":"70.4639",
"lon":"-157.331",
"name":"AtqasukAirport",
"city":"Atqasuk",
"country":"UnitedStates"},
{
"code":"ATL",
"lat":"33.6558",
"lon":"-84.4333",
"name":"Hartsfield-JacksonAtlantaInternationalAirport",
"city":"Atlanta",
"country":"UnitedStates"},
{
"code":"ATM",
"lat":"-3.2506",
"lon":"-52.2517",
"name":"AltamiraAirport",
"city":"Altamira",
"country":"Brazil"},
{
"code":"ATQ",
"lat":"31.7131",
"lon":"74.7955",
"name":"RajaSansiAirport",
"city":"RajaSansi",
"country":"India"},
{
"code":"ATR",
"lat":"20.5067",
"lon":"-13.0436",
"name":"AtarAirport",
"city":"Atar",
"country":"Mauritania"},
{
"code":"ATT",
"lat":"60.865",
"lon":"-162.276",
"name":"AtmautluakAirport",
"city":"Atmautluak",
"country":"UnitedStates"},
{
"code":"ATW",
"lat":"44.2603",
"lon":"-88.5111",
"name":"OutagamieCountyAirport",
"city":"Appleton",
"country":"UnitedStates"},
{
"code":"ATY",
"lat":"44.9216",
"lon":"-97.1609",
"name":"WatertownMunicipalAirport",
"city":"Watertown",
"country":"UnitedStates"},
{
"code":"ATZ",
"lat":"27.0411",
"lon":"31.0114",
"name":"AsyutAirport",
"city":"Asyut",
"country":"Egypt"},
{
"code":"AUA",
"lat":"12.5022",
"lon":"-70.0139",
"name":"ReinaBeatrixInternationalAirport",
"city":"Aruba",
"country":"Aruba"},
{
"code":"AUC",
"lat":"7.0703",
"lon":"-70.7406",
"name":"SantiagoPerezAirport",
"city":"Arauca",
"country":"Colombia"},
{
"code":"AUG",
"lat":"44.3181",
"lon":"-69.7933",
"name":"AugustaStateAirport",
"city":"Augusta",
"country":"UnitedStates"},
{
"code":"AUH",
"lat":"24.4331",
"lon":"54.6489",
"name":"AbuDhabiInternationalAirport",
"city":"AbuDhabi",
"country":"UnitedArabEmirates"},
{
"code":"AUK",
"lat":"62.6833",
"lon":"-164.633",
"name":"AlakanukAirport",
"city":"Alakanuk",
"country":"UnitedStates"},
{
"code":"AUQ",
"lat":"-9.7719",
"lon":"-139.015",
"name":"AtuonaAirport",
"city":"Atuona",
"country":"FrenchPolynesia"},
{
"code":"AUR",
"lat":"44.8984",
"lon":"2.41982",
"name":"AurillacAirport",
"city":"Aurillac",
"country":"France"},
{
"code":"AUS",
"lat":"30.2027",
"lon":"-97.6653",
"name":"Austin-BergstromInternationalAirport",
"city":"Austin",
"country":"UnitedStates"},
{
"code":"AUX",
"lat":"-7.2281",
"lon":"-48.2403",
"name":"AraguainaAirport",
"city":"Araguaina",
"country":"Brazil"},
{
"code":"AUY",
"lat":"-20.1909",
"lon":"169.825",
"name":"Vanuatu",
"city":"Aneityum",
"country":"Vanuatu"},
{
"code":"AVL",
"lat":"35.4349",
"lon":"-82.5373",
"name":"AshevilleRegionalAirport",
"city":"Fletcher",
"country":"UnitedStates"},
{
"code":"AVN",
"lat":"43.9056",
"lon":"4.89951",
"name":"Avignon-CaumontAirport",
"city":"Avignon",
"country":"France"},
{
"code":"AVP",
"lat":"41.3354",
"lon":"-75.7294",
"name":"WilkesBarreScrantonInternationalAirport",
"city":"Pittston",
"country":"UnitedStates"},
{
"code":"AVU",
"lat":"-9.85",
"lon":"160.417",
"name":"AvuAvu",
"city":"AvuAvu",
"country":"SolomonIslands"},
{
"code":"AVV",
"lat":"-38.0408",
"lon":"144.468",
"name":"AvalonAirport",
"city":"Lara",
"country":"Australia"},
{
"code":"AWB",
"lat":"-8.01667",
"lon":"142.75",
"name":"Awaba",
"city":"Awaba",
"country":"PapuaNewGuinea"},
{
"code":"AWD",
"lat":"-19.2501",
"lon":"169.598",
"name":"AniwaAirport",
"city":"Aniwa",
"country":"Vanuatu"},
{
"code":"AWZ",
"lat":"31.3378",
"lon":"48.7597",
"name":"AhvazAirport",
"city":"Ahvaz",
"country":"Iran"},
{
"code":"AXA",
"lat":"18.2103",
"lon":"-63.0575",
"name":"WallblakeAirport",
"city":"Anguilla",
"country":"Anguilla"},
{
"code":"AXD",
"lat":"40.8567",
"lon":"25.9567",
"name":"AlexandroupolisAirport",
"city":"Alexandroupolis",
"country":"Greece"},
{
"code":"AXM",
"lat":"4.4564",
"lon":"-75.7681",
"name":"ElEdenAirport",
"city":"LaTebaida",
"country":"Colombia"},
{
"code":"AXP",
"lat":"22.4441",
"lon":"-73.9775",
"name":"SpringPointAirport",
"city":"SpringPoint",
"country":"Bahamas"},
{
"code":"AXR",
"lat":"-15.5098",
"lon":"-146.538",
"name":"FrenchPolynesia",
"city":"Arutua",
"country":"FrenchPolynesia"},
{
"code":"AXT",
"lat":"39.6153",
"lon":"140.219",
"name":"AkitaAirport",
"city":"Akita-shi",
"country":"Japan"},
{
"code":"AXU",
"lat":"14.147",
"lon":"38.7726",
"name":"Axum",
"city":"Axum",
"country":"Ethiopia"},
{
"code":"AYQ",
"lat":"-25.1872",
"lon":"130.977",
"name":"AyersRockAirport",
"city":"AyersRock",
"country":"Australia"},
{
"code":"AYT",
"lat":"36.9022",
"lon":"30.7917",
"name":"AntalyaAirport",
"city":"Antalya",
"country":"Turkey"},
{
"code":"AZA",
"lat":"33.3078",
"lon":"-111.656",
"name":"Phoenix-MesaGatewayAirport",
"city":"Phoenix",
"country":"UnitedStates"},
{
"code":"AZD",
"lat":"31.905",
"lon":"54.2786",
"name":"YazdAirport",
"city":"Yezd",
"country":"Iran"},
{
"code":"AZN",
"lat":"40.7324",
"lon":"72.2931",
"name":"AndizhanAirport",
"city":"Andijon",
"country":"Uzbekistan"},
{
"code":"AZO",
"lat":"42.2398",
"lon":"-85.5563",
"name":"Kalamazoo-BattleCreekInternationalAirport",
"city":"Kalamazoo",
"country":"UnitedStates"},
{
"code":"AZR",
"lat":"27.8378",
"lon":"-0.1864",
"name":"TouatAirport",
"city":"Adrar",
"country":"Algeria"},
{
"code":"AZS",
"lat":"19.2099",
"lon":"-69.3279",
"name":"SamanaElCateyInternationalAirport",
"city":"Samana",
"country":"DominicanRepublic"},
{
"code":"BAG",
"lat":"16.3764",
"lon":"120.619",
"name":"BaguioAirport",
"city":"BaguioCity",
"country":"Philippines"},
{
"code":"BAH",
"lat":"26.2736",
"lon":"50.6234",
"name":"BahrainInternationalAirport",
"city":"AlMuharraq",
"country":"Bahrain"},
{
"code":"BAL",
"lat":"37.93",
"lon":"41.1167",
"name":"BatmanAirport",
"city":"Batman",
"country":"Turkey"},
{
"code":"BAQ",
"lat":"10.8961",
"lon":"-74.7789",
"name":"ErnestoCortissozAirport",
"city":"Soledad",
"country":"Colombia"},
{
"code":"BAS",
"lat":"-7.98333",
"lon":"155.9",
"name":"Balalae",
"city":"Balalae",
"country":"SolomonIslands"},
{
"code":"BAU",
"lat":"-22.345",
"lon":"-49.0531",
"name":"BauruAirport",
"city":"Bauru",
"country":"Brazil"},
{
"code":"BAV",
"lat":"40.5679",
"lon":"109.998",
"name":"BaotouAirport",
"city":"Baotou",
"country":"China"},
{
"code":"BAX",
"lat":"53.3667",
"lon":"83.75",
"name":"BarnauiWestAirport",
"city":"Barnaul",
"country":"Russia"},
{
"code":"BAY",
"lat":"47.6589",
"lon":"23.465",
"name":"BaiaMare",
"city":"BaiaMare",
"country":"Romania"},
{
"code":"BBA",
"lat":"-45.9167",
"lon":"-71.6869",
"name":"BalmacedaAirport",
"city":"Balmaceda",
"country":"Chile"},
{
"code":"BBI",
"lat":"20.2466",
"lon":"85.8152",
"name":"BhubaneswarAirport",
"city":"Bhubaneswar",
"country":"India"},
{
"code":"BBK",
"lat":"-17.8333",
"lon":"25.1667",
"name":"KasaneAirport",
"city":"Kasane",
"country":"Botswana"},
{
"code":"BBN",
"lat":"3.73333",
"lon":"115.467",
"name":"BarioAirport",
"city":"NangaMedamit",
"country":"Malaysia"},
{
"code":"BBO",
"lat":"10.3917",
"lon":"44.95",
"name":"BerberaAirport",
"city":"Berbera",
"country":"Somalia"},
{
"code":"BBS",
"lat":"51.3252",
"lon":"-0.84173",
"name":"BlackbusheAirport",
"city":"Camberley",
"country":"UnitedKingdom"},
{
"code":"BBU",
"lat":"44.4966",
"lon":"26.087",
"name":"AeroportulNationalBucuresti-Baneasa",
"city":"Bucharest",
"country":"Romania"},
{
"code":"BCA",
"lat":"20.3644",
"lon":"-74.5064",
"name":"BaracoaAirport",
"city":"Baracoa",
"country":"Cuba"},
{
"code":"BCD",
"lat":"10.6444",
"lon":"122.929",
"name":"BacolodAirport",
"city":"BacolodCity",
"country":"Philippines"},
{
"code":"BCI",
"lat":"-23.5635",
"lon":"145.305",
"name":"BarcaldineAerodrome",
"city":"Barcaldine",
"country":"Australia"},
{
"code":"BCL",
"lat":"10.7856",
"lon":"-83.5966",
"name":"BarraColoradoAirport",
"city":"Colorado",
"country":"CostaRica"},
{
"code":"BCM",
"lat":"46.5283",
"lon":"26.8997",
"name":"LuiziCalugaraAirport",
"city":"Bacæu",
"country":"Romania"},
{
"code":"BCN",
"lat":"41.3006",
"lon":"2.07976",
"name":"BarcelonaInternationalAirport",
"city":"ElPratdeLlobregat",
"country":"Spain"},
{
"code":"BDA",
"lat":"32.3675",
"lon":"-64.6903",
"name":"BermudaInternationalAirport",
"city":"St.George",
"country":"Bermuda"},
{
"code":"BDB",
"lat":"-24.9046",
"lon":"152.322",
"name":"BundabergAirport",
"city":"Bundaberg",
"country":"Australia"},
{
"code":"BDD",
"lat":"-10.1214",
"lon":"142.142",
"name":"BaduIslandAirport",
"city":"BaduIsland",
"country":"Australia"},
{
"code":"BDH",
"lat":"26.5333",
"lon":"54.8239",
"name":"BandarLengehAirport",
"city":"BandarAbbas",
"country":"Iran"},
{
"code":"BDJ",
"lat":"-3.4425",
"lon":"114.757",
"name":"SyamsuddinNoorAirport",
"city":"Banjarmasin",
"country":"Indonesia"},
{
"code":"BDL",
"lat":"41.9271",
"lon":"-72.6816",
"name":"BradleyInternationalAirport",
"city":"WindsorLocks",
"country":"UnitedStates"},
{
"code":"BDO",
"lat":"-6.9017",
"lon":"107.576",
"name":"HuseinSastranegaraAirport",
"city":"Bandung",
"country":"Indonesia"},
{
"code":"BDP",
"lat":"26.5667",
"lon":"88.0833",
"name":"Bhadrapur",
"city":"Bhadrapur",
"country":"Nepal"},
{
"code":"BDQ",
"lat":"22.3367",
"lon":"73.2264",
"name":"VadodaraAirport",
"city":"Vadodara",
"country":"India"},
{
"code":"BDR",
"lat":"41.1636",
"lon":"-73.1283",
"name":"IgorISikorskyMemorialAirport",
"city":"Stratford",
"country":"UnitedStates"},
{
"code":"BDS",
"lat":"40.6626",
"lon":"17.9426",
"name":"CasaleAirport",
"city":"Brindisi",
"country":"Italy"},
{
"code":"BDU",
"lat":"69.0589",
"lon":"18.539",
"name":"BardufossAirport",
"city":"Bardufoss",
"country":"Norway"},
{
"code":"BEB",
"lat":"57.4756",
"lon":"-7.37041",
"name":"BenbeculaAirport",
"city":"Balivanich",
"country":"UnitedKingdom"},
{
"code":"BEG",
"lat":"44.8192",
"lon":"20.3122",
"name":"SurcinAirport",
"city":"Surčin",
"country":"Serbia"},
{
"code":"BEL",
"lat":"-1.3844",
"lon":"-48.4783",
"name":"ValdeCaesInternationalAirport",
"city":"Belem",
"country":"Brazil"},
{
"code":"BEN",
"lat":"35.6425",
"lon":"-87.1192",
"name":"BeninaIntl",
"city":"Benghazi",
"country":"Libya"},
{
"code":"BES",
"lat":"48.4458",
"lon":"-4.41511",
"name":"GuipavasAirport",
"city":"Guipavas",
"country":"France"},
{
"code":"BET",
"lat":"60.7788",
"lon":"-161.847",
"name":"BethelAirport",
"city":"Bethel",
"country":"UnitedStates"},
{
"code":"BEU",
"lat":"-24.3544",
"lon":"139.463",
"name":"BedourieAerodrome",
"city":"Bedourie",
"country":"Australia"},
{
"code":"BEW",
"lat":"-19.7958",
"lon":"34.9089",
"name":"BeiraAirport",
"city":"Beira",
"country":"Mozambique"},
{
"code":"BEY",
"lat":"33.825",
"lon":"35.4925",
"name":"BeirutInternationalAirport",
"city":"Beirut",
"country":"Lebanon"},
{
"code":"BFD",
"lat":"41.7964",
"lon":"-78.6407",
"name":"BradfordRegionalAirport",
"city":"LewisRun",
"country":"UnitedStates"},
{
"code":"BFE",
"lat":"52",
"lon":"8.5",
"name":"Bielefeld",
"city":"Bielefeld",
"country":"Germany"},
{
"code":"BFF",
"lat":"41.8683",
"lon":"-103.597",
"name":"WilliamBHeiligFieldAirport",
"city":"Scottsbluff",
"country":"UnitedStates"},
{
"code":"BFI",
"lat":"47.5369",
"lon":"-122.304",
"name":"KingCountyInternationalAirport-BoeingField",
"city":"Seattle",
"country":"UnitedStates"},
{
"code":"BFL",
"lat":"35.4288",
"lon":"-119.044",
"name":"KernCounty-MeadowsFieldAirport",
"city":"Bakersfield",
"country":"UnitedStates"},
{
"code":"BFN",
"lat":"-29.0942",
"lon":"26.3027",
"name":"JBMHertzogAirport",
"city":"Bloemfontein",
"country":"SouthAfrica"},
{
"code":"BFS",
"lat":"54.6542",
"lon":"-6.225",
"name":"AldergroveAirport",
"city":"Crumlin",
"country":"UnitedKingdom"},
{
"code":"BFV",
"lat":"15.2295",
"lon":"103.253",
"name":"BuriRam",
"city":"BuriRam",
"country":"Thailand"},
{
"code":"BGA",
"lat":"7.1217",
"lon":"-73.1883",
"name":"PalonegroAirport",
"city":"Bucaramanga",
"country":"Colombia"},
{
"code":"BGF",
"lat":"4.3961",
"lon":"18.5203",
"name":"BanguiMPokoAirport",
"city":"Bangui",
"country":"CentralAfricanRepublic"},
{
"code":"BGI",
"lat":"13.0719",
"lon":"-59.4939",
"name":"GrantleyAdamsInternationalAirport",
"city":"Bridgetown",
"country":"Barbados"},
{
"code":"BGM",
"lat":"42.2082",
"lon":"-75.9825",
"name":"GreaterBinghamtonEdwinALinkFieldAirport",
"city":"JohnsonCity",
"country":"UnitedStates"},
{
"code":"BGO",
"lat":"60.2907",
"lon":"5.22065",
"name":"BergenFleslandAirport",
"city":"Blomsterdalen",
"country":"Norway"},
{
"code":"BGR",
"lat":"44.8086",
"lon":"-68.8167",
"name":"BangorInternationalAirport",
"city":"Bangor",
"country":"UnitedStates"},
{
"code":"BGW",
"lat":"33.3328",
"lon":"44.3639",
"name":"AlMuthanaAirport",
"city":"Baghdad",
"country":"Iraq"},
{
"code":"BGY",
"lat":"45.6664",
"lon":"9.699",
"name":"OrioAlSerioAirport",
"city":"Grassobbio",
"country":"Italy"},
{
"code":"BHB",
"lat":"44.4461",
"lon":"-68.3615",
"name":"HancockCounty-BarHarborAirport",
"city":"Ellsworth",
"country":"UnitedStates"},
{
"code":"BHD",
"lat":"54.6151",
"lon":"-5.87096",
"name":"GeorgeBestBelfastCityAirport",
"city":"Belfast",
"country":"UnitedKingdom"},
{
"code":"BHE",
"lat":"-41.52",
"lon":"173.87",
"name":"WoodbourneAirport",
"city":"Blenheim",
"country":"NewZealand"},
{
"code":"BHG",
"lat":"15.7636",
"lon":"-84.551",
"name":"BrusLagunaAirport",
"city":"BrusLaguna",
"country":"Honduras"},
{
"code":"BHH",
"lat":"19.9817",
"lon":"42.6267",
"name":"BishaAirport",
"city":"Bisha",
"country":"SaudiArabia"},
{
"code":"BHI",
"lat":"-38.7261",
"lon":"-62.1539",
"name":"BahiaBlancaCteEsporaNavalAirBase",
"city":"PuntaAlta",
"country":"Argentina"},
{
"code":"BHJ",
"lat":"23.2875",
"lon":"69.6706",
"name":"BhujAirport",
"city":"Bhuj",
"country":"India"},
{
"code":"BHK",
"lat":"39.7948",
"lon":"64.4895",
"name":"BukharaAirport",
"city":"Bukhara",
"country":"Uzbekistan"},
{
"code":"BHM",
"lat":"33.5604",
"lon":"-86.7492",
"name":"BirminghamInternationalAirport",
"city":"Birmingham",
"country":"UnitedStates"},
{
"code":"BHO",
"lat":"23.2844",
"lon":"77.3383",
"name":"BairagarhAirport",
"city":"Bhopal",
"country":"India"},
{
"code":"BHQ",
"lat":"-32.0031",
"lon":"141.466",
"name":"BrokenHillAirport",
"city":"BrokenHill",
"country":"Australia"},
{
"code":"BHR",
"lat":"25.9173",
"lon":"50.6071",
"name":"Bharatpur",
"city":"Bharatpur",
"country":"Nepal"},
{
"code":"BHS",
"lat":"-33.4121",
"lon":"149.657",
"name":"BathurstAirport",
"city":"Bathurst",
"country":"Australia"},
{
"code":"BHU",
"lat":"21.7536",
"lon":"72.1867",
"name":"BhavnagarAirport",
"city":"Bhavnagar",
"country":"India"},
{
"code":"BHV",
"lat":"29.3444",
"lon":"71.7125",
"name":"BahawalpurAirport",
"city":"Bahawalpur",
"country":"Pakistan"},
{
"code":"BHX",
"lat":"52.4531",
"lon":"-1.73847",
"name":"BirminghamInternationalAirport",
"city":"Birmingham",
"country":"UnitedKingdom"},
{
"code":"BHY",
"lat":"21.4833",
"lon":"109.083",
"name":"Beihai",
"city":"Beihai",
"country":"China"},
{
"code":"BIA",
"lat":"42.5497",
"lon":"9.48341",
"name":"PorettaAirport",
"city":"Borgo",
"country":"France"},
{
"code":"BID",
"lat":"41.1696",
"lon":"-71.58",
"name":"BlockIslandStateAirport",
"city":"BlockIsland",
"country":"UnitedStates"},
{
"code":"BII",
"lat":"11.5833",
"lon":"165.383",
"name":"EnyuAirfield",
"city":"BikiniAtoll",
"country":"MarshallIslands"},
{
"code":"BIK",
"lat":"-1",
"lon":"136.117",
"name":"FransKaisiepoAirport",
"city":"Biak",
"country":"Indonesia"},
{
"code":"BIL",
"lat":"45.8034",
"lon":"-108.537",
"name":"LoganInternationalAirport",
"city":"Billings",
"country":"UnitedStates"},
{
"code":"BIM",
"lat":"25.6994",
"lon":"-79.2636",
"name":"SouthBiminiAirport",
"city":"Bailey'sTown",
"country":"Bahamas"},
{
"code":"BIO",
"lat":"43.3025",
"lon":"-2.91112",
"name":"BilbaoAirport",
"city":"Loiu",
"country":"Spain"},
{
"code":"BIQ",
"lat":"43.472",
"lon":"-1.53137",
"name":"AngletAirport",
"city":"Anglet",
"country":"France"},
{
"code":"BIR",
"lat":"26.4814",
"lon":"87.2647",
"name":"BiratnagarAirport",
"city":"Biratnagur",
"country":"Nepal"},
{
"code":"BIS",
"lat":"46.7745",
"lon":"-100.757",
"name":"BismarckMunicipalAirport",
"city":"Bismarck",
"country":"UnitedStates"},
{
"code":"BJA",
"lat":"36.7133",
"lon":"5.0697",
"name":"SoummamAirport",
"city":"Bejaia",
"country":"Algeria"},
{
"code":"BJB",
"lat":"37.4933",
"lon":"57.3007",
"name":"Bojnord",
"city":"Bojnord",
"country":"Iran"},
{
"code":"BJF",
"lat":"70.6031",
"lon":"29.6948",
"name":"BatsfjordAirport",
"city":"Baasfjord",
"country":"Norway"},
{
"code":"BJI",
"lat":"47.5065",
"lon":"-94.9338",
"name":"Bemidji-BeltramiCountyAirport",
"city":"Bemidji",
"country":"UnitedStates"},
{
"code":"BJL",
"lat":"13.3372",
"lon":"-16.6544",
"name":"YundumInternationalAirport",
"city":"Yundum",
"country":"Gambia"},
{
"code":"BJM",
"lat":"-3.3317",
"lon":"29.3208",
"name":"BujumburaAirport",
"city":"Bujumbura",
"country":"Burundi"},
{
"code":"BJR",
"lat":"11.5564",
"lon":"37.3687",
"name":"Ethiopia",
"city":"BaharDar",
"country":"Ethiopia"},
{
"code":"BJV",
"lat":"37.0413",
"lon":"27.4362",
"name":"MilasAirport",
"city":"Bodrum",
"country":"Turkey"},
{
"code":"BJW",
"lat":"-8.78333",
"lon":"120.983",
"name":"BajawaAirport",
"city":"Ende",
"country":"Indonesia"},
{
"code":"BJX",
"lat":"20.9903",
"lon":"-101.478",
"name":"SilaoAirport",
"city":"Silao",
"country":"Mexico"},
{
"code":"BJZ",
"lat":"38.8939",
"lon":"-6.81921",
"name":"TalaveralaRealAirport",
"city":"Badajoz",
"country":"Spain"},
{
"code":"BKA",
"lat":"55.5516",
"lon":"37.9763",
"name":"BykovoAirport",
"city":"Lyubertsy",
"country":"Russia"},
{
"code":"BKC",
"lat":"65.9833",
"lon":"-161.167",
"name":"BucklandAirport",
"city":"Buckland",
"country":"UnitedStates"},
{
"code":"BKI",
"lat":"5.9386",
"lon":"116.049",
"name":"KotaKinabaluAirport",
"city":"KotaKinabalu",
"country":"Malaysia"},
{
"code":"BKK",
"lat":"13.9144",
"lon":"100.608",
"name":"BangkokInternationalAirport",
"city":"LakSi",
"country":"Thailand"},
{
"code":"BKL",
"lat":"41.5115",
"lon":"-81.6869",
"name":"BurkeLakefrontAirport",
"city":"Cleveland",
"country":"UnitedStates"},
{
"code":"BKM",
"lat":"3.94515",
"lon":"114.402",
"name":"Malaysia",
"city":"Bakalalan",
"country":"Malaysia"},
{
"code":"BKO",
"lat":"12.5361",
"lon":"-7.9486",
"name":"BamakoSenouAirport",
"city":"Kalaban",
"country":"Mali"},
{
"code":"BKQ",
"lat":"-24.4292",
"lon":"145.429",
"name":"BlackallAerodrome",
"city":"MountEnniskillen",
"country":"Australia"},
{
"code":"BKS",
"lat":"-3.8633",
"lon":"102.339",
"name":"PadangkemilingAirport",
"city":"Bengkulu",
"country":"Indonesia"},
{
"code":"BKW",
"lat":"37.7849",
"lon":"-81.1174",
"name":"RaleighCountyMemorialAirport",
"city":"Beaver",
"country":"UnitedStates"},
{
"code":"BKY",
"lat":"-2.3014",
"lon":"28.8139",
"name":"BukavuKavumuAirport",
"city":"Bukavu",
"country":"Congo"},
{
"code":"BLA",
"lat":"10.1103",
"lon":"-64.6872",
"name":"JoseAntonioAnzoateguiAirport",
"city":"Pariaguán",
"country":"Venezuela"},
{
"code":"BLE",
"lat":"60.4297",
"lon":"15.5081",
"name":"DalaAirport",
"city":"Borlange",
"country":"Sweden"},
{
"code":"BLI",
"lat":"48.7955",
"lon":"-122.532",
"name":"BellinghamInternationalAirport",
"city":"Bellingham",
"country":"UnitedStates"},
{
"code":"BLJ",
"lat":"35.5572",
"lon":"6.17229",
"name":"Algeria",
"city":"Batna",
"country":"Algeria"},
{
"code":"BLK",
"lat":"53.7756",
"lon":"-3.04118",
"name":"BlackpoolAirport",
"city":"Blackpool",
"country":"UnitedKingdom"},
{
"code":"BLL",
"lat":"55.742",
"lon":"9.15354",
"name":"BillundAirport",
"city":"Billund",
"country":"Denmark"},
{
"code":"BLQ",
"lat":"44.5345",
"lon":"11.2903",
"name":"BolognaAirport",
"city":"Bologna",
"country":"Italy"},
{
"code":"BLR",
"lat":"12.9526",
"lon":"77.6656",
"name":"HALBangaloreInternationalAirport",
"city":"Bangalore",
"country":"India"},
{
"code":"BLT",
"lat":"-23.6012",
"lon":"148.805",
"name":"BlackwaterAerodrome",
"city":"Baralaba",
"country":"Australia"},
{
"code":"BLV",
"lat":"38.5412",
"lon":"-89.8499",
"name":"Belleville",
"city":"Belleville",
"country":"UnitedStates"},
{
"code":"BLZ",
"lat":"-15.6764",
"lon":"34.9714",
"name":"ChilekaInternationalAirport",
"city":"Lunzu",
"country":"Malawi"},
{
"code":"BMA",
"lat":"59.3562",
"lon":"17.9378",
"name":"BrommaAirport",
"city":"Bromma",
"country":"Sweden"},
{
"code":"BME",
"lat":"-17.9464",
"lon":"122.233",
"name":"BroomeInternationalAirport",
"city":"Broome",
"country":"Australia"},
{
"code":"BMI",
"lat":"40.4841",
"lon":"-88.9134",
"name":"BloomingtonNormalAirport",
"city":"Bloomington",
"country":"UnitedStates"},
{
"code":"BMK",
"lat":"53.5797",
"lon":"6.71294",
"name":"BorkumAirport",
"city":"Borkum",
"country":"Germany"},
{
"code":"BMO",
"lat":"24.2739",
"lon":"97.2517",
"name":"BhamoAirport",
"city":"Bhamo",
"country":"Myanmar"},
{
"code":"BMU",
"lat":"-8.5444",
"lon":"118.682",
"name":"MohammadSalahuddinAirport",
"city":"Raba",
"country":"Indonesia"},
{
"code":"BMV",
"lat":"12.6667",
"lon":"108.05",
"name":"BanMeThaut",
"city":"Banmethuot",
"country":"Vietnam"},
{
"code":"BMW",
"lat":"28.0269",
"lon":"1.65284",
"name":"Algeria",
"city":"BordjBadjiMokhtar",
"country":"Algeria"},
{
"code":"BMY",
"lat":"-19.75",
"lon":"163.667",
"name":"BelepIsland",
"city":"BelepIsland",
"country":"NewCaledonia"},
{
"code":"BNA",
"lat":"36.1342",
"lon":"-86.6682",
"name":"NashvilleInternationalAirport",
"city":"Nashville",
"country":"UnitedStates"},
{
"code":"BND",
"lat":"27.225",
"lon":"56.3783",
"name":"BandarAbbassInternationalAirport",
"city":"BandarAbbas",
"country":"Iran"},
{
"code":"BNE",
"lat":"-27.3589",
"lon":"153.122",
"name":"BrisbaneInternationalAirport",
"city":"Brisbane",
"country":"Australia"},
{
"code":"BNI",
"lat":"6.3161",
"lon":"5.6",
"name":"BeninAirport",
"city":"BeninCity",
"country":"Nigeria"},
{
"code":"BNJ",
"lat":"50.7667",
"lon":"7.16449",
"name":"Hangelar",
"city":"Bonn",
"country":"Germany"},
{
"code":"BNK",
"lat":"-28.8342",
"lon":"153.555",
"name":"BallinaAirport",
"city":"Ballina",
"country":"Australia"},
{
"code":"BNN",
"lat":"65.462",
"lon":"12.2161",
"name":"BronnoyAirport",
"city":"Bronnoysund",
"country":"Norway"},
{
"code":"BNS",
"lat":"8.6211",
"lon":"-70.2181",
"name":"BarinasAirport",
"city":"Barinas",
"country":"Venezuela"},
{
"code":"BNX",
"lat":"44.9403",
"lon":"17.2992",
"name":"BanjaLukaAirport",
"city":"BanjaLuka",
"country":"BosniaandHerzegovina"},
{
"code":"BNY",
"lat":"-11.2961",
"lon":"159.801",
"name":"BellonaAirport",
"city":"Bellona",
"country":"SolomonIslands"},
{
"code":"BOB",
"lat":"-16.45",
"lon":"-151.767",
"name":"Motu-MuteAirport",
"city":"Papeete",
"country":"FrenchPolynesia"},
{
"code":"BOC",
"lat":"9.34",
"lon":"-82.2514",
"name":"BocasdelToroAirport",
"city":"BocasdelToro",
"country":"Panama"},
{
"code":"BOD",
"lat":"44.8291",
"lon":"-0.70278",
"name":"BordeauxAirport",
"city":"Merignac",
"country":"France"},
{
"code":"BOG",
"lat":"4.69895",
"lon":"-74.1435",
"name":"EldoradoInternationalAirport",
"city":"Fontibón",
"country":"Colombia"},
{
"code":"BOH",
"lat":"50.7797",
"lon":"-1.83424",
"name":"BournemouthInternationalAirport",
"city":"Christchurch",
"country":"UnitedKingdom"},
{
"code":"BOI",
"lat":"43.5709",
"lon":"-116.222",
"name":"BoiseAirTerminal",
"city":"Boise",
"country":"UnitedStates"},
{
"code":"BOJ",
"lat":"42.5667",
"lon":"27.5",
"name":"BourgasAirport",
"city":"Burgas",
"country":"Bulgaria"},
{
"code":"BOM",
"lat":"19.0932",
"lon":"72.8654",
"name":"ChhatrapatiShivajiInternationalAirport",
"city":"Mumbai",
"country":"India"},
{
"code":"BON",
"lat":"12.1392",
"lon":"-68.2697",
"name":"FlamingoAirport",
"city":"Kralendijk",
"country":"NetherlandsAntilles"},
{
"code":"BOO",
"lat":"67.2709",
"lon":"14.3653",
"name":"BodoAirport",
"city":"Bodo",
"country":"Norway"},
{
"code":"BOS",
"lat":"42.3717",
"lon":"-71.0281",
"name":"GenELLoganInternationalAirport",
"city":"Boston",
"country":"UnitedStates"},
{
"code":"BOW",
"lat":"27.9493",
"lon":"-81.7818",
"name":"BartowMunicipalAirport",
"city":"Bartow",
"country":"UnitedStates"},
{
"code":"BOY",
"lat":"11.1636",
"lon":"-4.3264",
"name":"BoboDioulassoAirport",
"city":"Bobo-Dioulasso",
"country":"BurkinaFaso"},
{
"code":"BPN",
"lat":"-1.2681",
"lon":"116.897",
"name":"SepingganAirport",
"city":"Balikpapan",
"country":"Indonesia"},
{
"code":"BPS",
"lat":"-16.4406",
"lon":"-39.0833",
"name":"PortoSeguroAirport",
"city":"PortoSeguro",
"country":"Brazil"},
{
"code":"BPT",
"lat":"29.9551",
"lon":"-94.0185",
"name":"JeffersonCountyAirport",
"city":"Beaumont",
"country":"UnitedStates"},
{
"code":"BPX",
"lat":"31.1442",
"lon":"97.174",
"name":"BangdaAirport",
"city":"Qamdo",
"country":"China"},
{
"code":"BPY",
"lat":"-16.7431",
"lon":"44.4803",
"name":"BesalampyAirport",
"city":"Besalampy",
"country":"Madagascar"},
{
"code":"BQK",
"lat":"31.2525",
"lon":"-81.4703",
"name":"GlyncoJetportAirport",
"city":"Brunswick",
"country":"UnitedStates"},
{
"code":"BQL",
"lat":"-22.9122",
"lon":"139.897",
"name":"BouliaAerodrome",
"city":"Boulia",
"country":"Australia"},
{
"code":"BQN",
"lat":"18.496",
"lon":"-67.1357",
"name":"RafaelHernandezAirport",
"city":"Aguadilla",
"country":"UnitedStates"},
{
"code":"BQS",
"lat":"50.4243",
"lon":"127.409",
"name":"BlagoveshchenskNorthwestAirport",
"city":"Blagoveshchensk",
"country":"Russia"},
{
"code":"BRA",
"lat":"-12.0792",
"lon":"-45.01",
"name":"BarreirasAirport",
"city":"Barreiras",
"country":"Brazil"},
{
"code":"BRC",
"lat":"-41.1511",
"lon":"-71.1581",
"name":"SanCarlosdeBarilocheAirport",
"city":"SanCarlosDeBariloche",
"country":"Argentina"},
{
"code":"BRD",
"lat":"46.3909",
"lon":"-94.1413",
"name":"Brainerd-CrowWingCountyRegionalAirport",
"city":"Brainerd",
"country":"UnitedStates"},
{
"code":"BRE",
"lat":"53.0523",
"lon":"8.78533",
"name":"BremenAirport",
"city":"Bremen",
"country":"Germany"},
{
"code":"BRF",
"lat":"54.3139",
"lon":"-2.23218",
"name":"UnitedKingdom",
"city":"Bradford",
"country":"UnitedKingdom"},
{
"code":"BRI",
"lat":"41.1376",
"lon":"16.7674",
"name":"PaleseMacchieAirport",
"city":"Bari",
"country":"Italy"},
{
"code":"BRK",
"lat":"-30.0403",
"lon":"145.953",
"name":"BourkeAirport",
"city":"Bourke",
"country":"Australia"},
{
"code":"BRL",
"lat":"40.7816",
"lon":"-91.1197",
"name":"BurlingtonMunicipalAirport",
"city":"Burlington",
"country":"UnitedStates"},
{
"code":"BRM",
"lat":"10.0453",
"lon":"-69.3561",
"name":"BarquisimetoAirport",
"city":"Barquisimeto",
"country":"Venezuela"},
{
"code":"BRN",
"lat":"46.9124",
"lon":"7.49929",
"name":"BernBelpAirport",
"city":"Belp",
"country":"Switzerland"},
{
"code":"BRO",
"lat":"25.9064",
"lon":"-97.4321",
"name":"Brownsville-SouthPadreIslandInternationalAir",
"city":"Brownsville",
"country":"UnitedStates"},
{
"code":"BRQ",
"lat":"49.1535",
"lon":"16.6908",
"name":"TuranyAirport",
"city":"Brno",
"country":"CzechRepublic"},
{
"code":"BRR",
"lat":"57.0251",
"lon":"-7.44967",
"name":"NorthBayAirport",
"city":"Barra",
"country":"UnitedKingdom"},
{
"code":"BRS",
"lat":"51.3848",
"lon":"-2.70526",
"name":"BristolInternationalAirport",
"city":"Bristol",
"country":"UnitedKingdom"},
{
"code":"BRU",
"lat":"50.899",
"lon":"4.4859",
"name":"BrusselsAirport",
"city":"Bruxelles",
"country":"Belgium"},
{
"code":"BRV",
"lat":"53.5537",
"lon":"8.78359",
"name":"BremerhavenAirport",
"city":"BadBederkesa",
"country":"Germany"},
{
"code":"BRW",
"lat":"71.2892",
"lon":"-156.772",
"name":"WileyPostWillRogersMemorialAirport",
"city":"Barrow",
"country":"UnitedStates"},
{
"code":"BSA",
"lat":"11.2775",
"lon":"49.1814",
"name":"Somalia",
"city":"Bossaso",
"country":"Somalia"},
{
"code":"BSB",
"lat":"-15.8622",
"lon":"-47.9122",
"name":"JuscelinoKubitschekInternationalAirport",
"city":"LagoSul",
"country":"Brazil"},
{
"code":"BSC",
"lat":"6.1786",
"lon":"-77.3956",
"name":"JoseCelestinoMutisAirport",
"city":"BahíaSolano",
"country":"Colombia"},
{
"code":"BSD",
"lat":"25.0604",
"lon":"99.1639",
"name":"BaoshanAirport",
"city":"Baoshan",
"country":"China"},
{
"code":"BSG",
"lat":"1.9046",
"lon":"9.8032",
"name":"BataAirport",
"city":"Bata",
"country":"EquatorialGuinea"},
{
"code":"BSH",
"lat":"50.8333",
"lon":"-0.13333",
"name":"BrightonAirport",
"city":"Brighton",
"country":"UnitedKingdom"},
{
"code":"BSK",
"lat":"34.7933",
"lon":"5.74",
"name":"BiskraAirport",
"city":"Biskra",
"country":"Algeria"},
{
"code":"BSL",
"lat":"47.5998",
"lon":"7.532",
"name":"EuroairportBasel-Mulhouse-Freiburg",
"city":"St-Ludwig",
"country":"France"},
{
"code":"BSO",
"lat":"20.4531",
"lon":"121.978",
"name":"BascoAirport",
"city":"Basco",
"country":"Philippines"},
{
"code":"BSR",
"lat":"30.5481",
"lon":"47.6658",
"name":"BasrahInternationalAirport",
"city":"Gawad",
"country":"Iraq"},
{
"code":"BSX",
"lat":"45.4264",
"lon":"5.14384",
"name":"Bassein",
"city":"Bassein",
"country":"Myanmar"},
{
"code":"BTH",
"lat":"1.1306",
"lon":"104.134",
"name":"HangNadimAirport",
"city":"Batam",
"country":"Indonesia"},
{
"code":"BTI",
"lat":"70.1478",
"lon":"-143.579",
"name":"BarterIslandAirport",
"city":"Kaktovik",
"country":"UnitedStates"},
{
"code":"BTJ",
"lat":"5.5197",
"lon":"95.4181",
"name":"BlangbintangAirport",
"city":"BandaAceh",
"country":"Indonesia"},
{
"code":"BTK",
"lat":"56.1667",
"lon":"102.067",
"name":"Bratsk",
"city":"Bratsk",
"country":"Russia"},
{
"code":"BTL",
"lat":"42.3046",
"lon":"-85.2448",
"name":"WKKelloggAirport",
"city":"BattleCreek",
"country":"UnitedStates"},
{
"code":"BTM",
"lat":"45.9544",
"lon":"-112.503",
"name":"BertMooneyAirport",
"city":"Butte",
"country":"UnitedStates"},
{
"code":"BTR",
"lat":"30.533",
"lon":"-91.1567",
"name":"BatonRougeMetropolitanAirport",
"city":"BatonRouge",
"country":"UnitedStates"},
{
"code":"BTS",
"lat":"48.2063",
"lon":"17.2055",
"name":"BratislavaAirport",
"city":"Bratislava",
"country":"Slovakia"},
{
"code":"BTT",
"lat":"66.9134",
"lon":"-151.551",
"name":"BettlesAirport",
"city":"Bettles",
"country":"UnitedStates"},
{
"code":"BTU",
"lat":"3.1728",
"lon":"113.043",
"name":"BintuluAirport",
"city":"Bintulu",
"country":"Malaysia"},
{
"code":"BTV",
"lat":"44.4688",
"lon":"-73.1552",
"name":"BurlingtonInternationalAirport",
"city":"SouthBurlington",
"country":"UnitedStates"},
{
"code":"BTZ",
"lat":"40.2344",
"lon":"29.0053",
"name":"BursaAirport",
"city":"Bursa",
"country":"Turkey"},
{
"code":"BUA",
"lat":"-5.42232",
"lon":"154.673",
"name":"Buka",
"city":"Buka",
"country":"PapuaNewGuinea"},
{
"code":"BUC",
"lat":"-17.7484",
"lon":"139.532",
"name":"BurketownAerodrome",
"city":"Burketown",
"country":"Australia"},
{
"code":"BUD",
"lat":"47.4453",
"lon":"19.2195",
"name":"FerihegyAirport",
"city":"Budapest",
"country":"Hungary"},
{
"code":"BUF",
"lat":"42.9309",
"lon":"-78.738",
"name":"GreaterBuffaloInternationalAirport",
"city":"Buffalo",
"country":"UnitedStates"},
{
"code":"BUL",
"lat":"33.9116",
"lon":"-102.638",
"name":"Bulolo",
"city":"Bulolo",
"country":"PapuaNewGuinea"},
{
"code":"BUN",
"lat":"3.8183",
"lon":"-76.9931",
"name":"BuenaventuraAirport",
"city":"Buenaventura",
"country":"Colombia"},
{
"code":"BUO",
"lat":"65.8514",
"lon":"12.344",
"name":"Burao",
"city":"Burao",
"country":"Somalia"},
{
"code":"BUQ",
"lat":"-20.0169",
"lon":"28.6181",
"name":"BulawayoAirport",
"city":"Bulawayo",
"country":"Zimbabwe"},
{
"code":"BUR",
"lat":"34.1963",
"lon":"-118.352",
"name":"BurbankGlendalePasadenaAirport",
"city":"Burbank",
"country":"UnitedStates"},
{
"code":"BUS",
"lat":"50.0662",
"lon":"2.96519",
"name":"Batumi",
"city":"Batumi",
"country":"Georgia"},
{
"code":"BUX",
"lat":"1.5717",
"lon":"30.2128",
"name":"BuniaAirport",
"city":"Bunia",
"country":"Congo"},
{
"code":"BUZ",
"lat":"28.9494",
"lon":"50.8311",
"name":"BushehrAirport",
"city":"Bandar-eBushehr",
"country":"Iran"},
{
"code":"BVA",
"lat":"49.4565",
"lon":"2.11552",
"name":"Beauvais-TilleAirport",
"city":"Beauvais",
"country":"France"},
{
"code":"BVB",
"lat":"2.8417",
"lon":"-60.6917",
"name":"BoaVistaInternationalAirport",
"city":"BoaVista",
"country":"Brazil"},
{
"code":"BVC",
"lat":"16.0961",
"lon":"-22.8172",
"name":"BoaVistaAirport",
"city":"BoaVista",
"country":"CapeVerde"},
{
"code":"BVE",
"lat":"45.1487",
"lon":"1.47441",
"name":"LaRocheAirport",
"city":"Brive-la-Gaillarde",
"country":"France"},
{
"code":"BVG",
"lat":"70.8702",
"lon":"29.0294",
"name":"BerlevagAirport",
"city":"Berlevaag",
"country":"Norway"},
{
"code":"BVH",
"lat":"-12.7014",
"lon":"-60.0931",
"name":"BrigadeiroCamaraoAirport",
"city":"Vilhena",
"country":"Brazil"},
{
"code":"BVI",
"lat":"-25.8971",
"lon":"139.349",
"name":"BirdsvilleAirport",
"city":"Birdsville",
"country":"Australia"},
{
"code":"BWA",
"lat":"27.5042",
"lon":"83.42",
"name":"BhairawaAirport",
"city":"Bhairawa",
"country":"Nepal"},
{
"code":"BWE",
"lat":"52.3165",
"lon":"10.5595",
"name":"BraunschweigAirport",
"city":"Braunschweig",
"country":"Germany"},
{
"code":"BWF",
"lat":"54.1284",
"lon":"-3.26249",
"name":"WalneyIslandAirport",
"city":"BarrowinFurness",
"country":"UnitedKingdom"},
{
"code":"BWI",
"lat":"39.1841",
"lon":"-76.6745",
"name":"Baltimore-WashingtonInternationalThurgoodMars",
"city":"Baltimore",
"country":"UnitedStates"},
{
"code":"BWK",
"lat":"43.2619",
"lon":"16.655",
"name":"Bol",
"city":"Bol",
"country":"Croatia"},
{
"code":"BWN",
"lat":"4.9458",
"lon":"114.924",
"name":"BruneiInternationalAirport",
"city":"BandarSeriBegawan",
"country":"Brunei"},
{
"code":"BWT",
"lat":"-40.9935",
"lon":"145.725",
"name":"BurnieWynyardAirport",
"city":"DoctorsRocks",
"country":"Australia"},
{
"code":"BWW",
"lat":"22.4922",
"lon":"-79.9408",
"name":"SantaClaraAirport",
"city":"SantaClara",
"country":"Cuba"},
{
"code":"BXR",
"lat":"29.4375",
"lon":"-98.4618",
"name":"",
"city":"Bam",
"country":"Iran"},
{
"code":"BXU",
"lat":"8.9528",
"lon":"125.476",
"name":"ButuanAirport",
"city":"Buenavista",
"country":"Philippines"},
{
"code":"BYM",
"lat":"20.3972",
"lon":"-76.6192",
"name":"BayamoAirport",
"city":"Bayamo",
"country":"Cuba"},
{
"code":"BYN",
"lat":"62.0526",
"lon":"17.1936",
"name":"",
"city":"Bayankhongor",
"country":"Mongolia"},
{
"code":"BZE",
"lat":"17.5386",
"lon":"-88.3042",
"name":"PhilipSWGoldsonInternationalAirport",
"city":"Hattieville",
"country":"Belize"},
{
"code":"BZG",
"lat":"53.0918",
"lon":"17.9821",
"name":"SzwederowoAirport",
"city":"BiałeBłota",
"country":"Poland"},
{
"code":"BZK",
"lat":"53.2667",
"lon":"34.3333",
"name":"Briansk",
"city":"Briansk",
"country":"RussianFederation"},
{
"code":"BZL",
"lat":"22.6667",
"lon":"90.3417",
"name":"",
"city":"Barisal",
"country":"Bangladesh"},
{
"code":"BZN",
"lat":"45.7722",
"lon":"-111.157",
"name":"GallatinFieldAirport",
"city":"Bozeman",
"country":"UnitedStates"},
{
"code":"BZO",
"lat":"46.4621",
"lon":"11.3282",
"name":"BolzanoAirport",
"city":"Botzen",
"country":"Italy"},
{
"code":"BZR",
"lat":"43.3229",
"lon":"3.35466",
"name":"ViasAirport",
"city":"Villeneuve",
"country":"France"},
{
"code":"BZV",
"lat":"-4.2558",
"lon":"15.2497",
"name":"BrazzavilleMayaMayaAirport",
"city":"Brazzaville",
"country":"Congo"},
{
"code":"BZZ",
"lat":"51.7614",
"lon":"-1.57482",
"name":"BrizeNortonAirport",
"city":"Carterton",
"country":"UnitedKingdom"},
{
"code":"CAB",
"lat":"-5.59",
"lon":"12.1886",
"name":"CabindaAirport",
"city":"Cabinda",
"country":"Angola"},
{
"code":"CAC",
"lat":"-25.0017",
"lon":"-53.5014",
"name":"CascavelAirport",
"city":"Cascavel",
"country":"Brazil"},
{
"code":"CAE",
"lat":"33.9468",
"lon":"-81.1241",
"name":"ColumbiaMetropolitanAirport",
"city":"WestColumbia",
"country":"UnitedStates"},
{
"code":"CAG",
"lat":"39.2527",
"lon":"9.05813",
"name":"ElmasAirport",
"city":"Sardara",
"country":"Italy"},
{
"code":"CAH",
"lat":"9.17667",
"lon":"105.151",
"name":"Camo",
"city":"CaMau",
"country":"Vietnam"},
{
"code":"CAI",
"lat":"30.1206",
"lon":"31.4078",
"name":"CairoInternationalAirport",
"city":"Cairo",
"country":"Egypt"},
{
"code":"CAK",
"lat":"40.9149",
"lon":"-81.4309",
"name":"AkronCantonRegionalAirport",
"city":"Canton",
"country":"UnitedStates"},
{
"code":"CAL",
"lat":"55.4388",
"lon":"-5.69997",
"name":"CampbeltownAirport",
"city":"Campbeltown",
"country":"UnitedKingdom"},
{
"code":"CAN",
"lat":"23.3925",
"lon":"113.299",
"name":"BaiyunAirport",
"city":"Guangzhou",
"country":"China"},
{
"code":"CAP",
"lat":"19.7328",
"lon":"-72.195",
"name":"CapHaitienAirport",
"city":"Cap-Haïtien",
"country":"Haiti"},
{
"code":"CAX",
"lat":"54.9375",
"lon":"-2.8106",
"name":"CarlisleAirport",
"city":"Carlisle",
"country":"UnitedKingdom"},
{
"code":"CAY",
"lat":"4.93333",
"lon":"-52.3333",
"name":"Rochambeau",
"city":"Cayenne",
"country":"FrenchGuiana"},
{
"code":"CAZ",
"lat":"-31.5334",
"lon":"145.797",
"name":"CobarAirport",
"city":"Canbelego",
"country":"Australia"},
{
"code":"CBB",
"lat":"-17.4161",
"lon":"-66.1744",
"name":"JorgeWilstermanAirport",
"city":"Cochabamba",
"country":"Bolivia"},
{
"code":"CBG",
"lat":"52.2069",
"lon":"0.17355",
"name":"CambridgeAirport",
"city":"Cambridge",
"country":"UnitedKingdom"},
{
"code":"CBH",
"lat":"31.6583",
"lon":"-2.2614",
"name":"BecharAirport",
"city":"Bechar",
"country":"Algeria"},
{
"code":"CBO",
"lat":"7.165",
"lon":"124.208",
"name":"CotabatoAirport",
"city":"SultanKudarat",
"country":"Philippines"},
{
"code":"CBQ",
"lat":"4.9756",
"lon":"8.3481",
"name":"CalabarAirport",
"city":"DukeTown",
"country":"Nigeria"},
{
"code":"CBR",
"lat":"-35.3069",
"lon":"149.195",
"name":"CanberraInternationalAirport",
"city":"Canberra",
"country":"Australia"},
{
"code":"CBT",
"lat":"-12.4827",
"lon":"13.4904",
"name":"Angola",
"city":"Catumbela",
"country":"Angola"},
{
"code":"CCC",
"lat":"22.4817",
"lon":"-78.4813",
"name":"Cuba",
"city":"CayoCoco",
"country":"Cuba"},
{
"code":"CCF",
"lat":"43.2153",
"lon":"2.30989",
"name":"SalvazaAirport",
"city":"Carcassonne",
"country":"France"},
{
"code":"CCJ",
"lat":"11.1329",
"lon":"75.9536",
"name":"KozhikodeAirport",
"city":"Pallikkal",
"country":"India"},
{
"code":"CCK",
"lat":"-12.1778",
"lon":"96.839",
"name":"CocosAirport",
"city":"WestIsland",
"country":"Cocos(Keeling)Islands"},
{
"code":"CCM",
"lat":"-28.7239",
"lon":"-49.4208",
"name":"CriciumaAirport",
"city":"Forquilhinha",
"country":"Brazil"},
{
"code":"CCP",
"lat":"-36.7736",
"lon":"-73.06",
"name":"CarrielSurInternationalAirport",
"city":"Hualpencillo",
"country":"Chile"},
{
"code":"CCS",
"lat":"10.6053",
"lon":"-66.9881",
"name":"SimonBolivarInternationalAirport",
"city":"CatialaMar",
"country":"Venezuela"},
{
"code":"CCU",
"lat":"22.6572",
"lon":"88.4506",
"name":"NetajiSubhashChandraBoseInternationalAirpor",
"city":"Kolkata",
"country":"India"},
{
"code":"CCV",
"lat":"-16.6619",
"lon":"168.38",
"name":"Vanuatu",
"city":"CraigCove",
"country":"Vanuatu"},
{
"code":"CCZ",
"lat":"25.4098",
"lon":"-77.8843",
"name":"ChubCayAirport",
"city":"ChubCay",
"country":"Bahamas"},
{
"code":"CDB",
"lat":"55.2005",
"lon":"-162.705",
"name":"ColdBayAirport",
"city":"ColdBay",
"country":"UnitedStates"},
{
"code":"CDC",
"lat":"37.6992",
"lon":"-113.092",
"name":"CedarCityMunicipalAirport",
"city":"CedarCity",
"country":"UnitedStates"},
{
"code":"CDG",
"lat":"49.0175",
"lon":"2.5564",
"name":"CharlesdeGaulleInternationalAirport",
"city":"LeMesnil-Amelot",
"country":"France"},
{
"code":"CDR",
"lat":"42.8284",
"lon":"-103.094",
"name":"ChadronMunicipalAirport",
"city":"Chadron",
"country":"UnitedStates"},
{
"code":"CDV",
"lat":"60.4924",
"lon":"-145.475",
"name":"MerleKMudholeSmithAirport",
"city":"Cordova",
"country":"UnitedStates"},
{
"code":"CDW",
"lat":"40.8759",
"lon":"-74.2775",
"name":"EssexCountyAirport",
"city":"Fairfield",
"country":"UnitedStates"},
{
"code":"CEB",
"lat":"10.3596",
"lon":"123.837",
"name":"LahugAirport",
"city":"Cebu",
"country":"Philippines"},
{
"code":"CEC",
"lat":"41.7765",
"lon":"-124.237",
"name":"JackMcnamaraFieldAirport",
"city":"CrescentCity",
"country":"UnitedStates"},
{
"code":"CED",
"lat":"-32.1264",
"lon":"133.701",
"name":"CedunaAirport",
"city":"Ceduna",
"country":"Australia"},
{
"code":"CEE",
"lat":"59.083",
"lon":"37.938",
"name":"CherepovetsAirport",
"city":"Cherepovets",
"country":"Russia"},
{
"code":"CEG",
"lat":"53.1707",
"lon":"-2.98142",
"name":"HawardenAirport",
"city":"Chester",
"country":"UnitedKingdom"},
{
"code":"CEI",
"lat":"19.8864",
"lon":"99.8306",
"name":"ChiangRaiAirport",
"city":"ChiangRai",
"country":"Thailand"},
{
"code":"CEK",
"lat":"55.3104",
"lon":"61.4913",
"name":"ChelyabinskBalandinoAirport",
"city":"Zlatoust",
"country":"Russia"},
{
"code":"CEM",
"lat":"65.6121",
"lon":"-144.674",
"name":"CentralAirport",
"city":"Circle",
"country":"UnitedStates"},
{
"code":"CEN",
"lat":"27.3925",
"lon":"-109.832",
"name":"CiudadObregonAirport",
"city":"CiudadObregón",
"country":"Mexico"},
{
"code":"CEZ",
"lat":"37.3044",
"lon":"-108.63",
"name":"Cortez-MontezumaCountyAirport",
"city":"Cortez",
"country":"UnitedStates"},
{
"code":"CFC",
"lat":"-26.7775",
"lon":"-51.0175",
"name":"CacadorAirport",
"city":"Caçador",
"country":"Brazil"},
{
"code":"CFE",
"lat":"45.7896",
"lon":"3.16013",
"name":"AulnatAirport",
"city":"Aulnat",
"country":"France"},
{
"code":"CFK",
"lat":"36.2128",
"lon":"1.33167",
"name":"AbouBakrBelkaid",
"city":"Chlef",
"country":"Algeria"},
{
"code":"CFN",
"lat":"55.0416",
"lon":"-8.3436",
"name":"CarrickfinAirport",
"city":"Mullaghduff",
"country":"Ireland"},
{
"code":"CFR",
"lat":"49.1825",
"lon":"-0.45906",
"name":"CarpiquetAirport",
"city":"Carpiquet",
"country":"France"},
{
"code":"CFS",
"lat":"-30.3171",
"lon":"153.119",
"name":"CoffsHarbourAirport",
"city":"CoffsHarbour",
"country":"Australia"},
{
"code":"CFU",
"lat":"39.6013",
"lon":"19.9136",
"name":"KerkiraAirport",
"city":"Corcyra",
"country":"Greece"},
{
"code":"CGA",
"lat":"55.4592",
"lon":"-133.106",
"name":"CraigSeaplaneBase",
"city":"Craig",
"country":"UnitedStates"},
{
"code":"CGB",
"lat":"-15.6497",
"lon":"-56.1169",
"name":"MarechalRondonInternationalAirport",
"city":"Cuiaba",
"country":"Brazil"},
{
"code":"CGD",
"lat":"28.9196",
"lon":"111.63",
"name":"ChangdeAirport",
"city":"Changde",
"country":"China"},
{
"code":"CGH",
"lat":"-23.6285",
"lon":"-46.6589",
"name":"CongonhasInternationalAirport",
"city":"SaoPaulo",
"country":"Brazil"},
{
"code":"CGI",
"lat":"37.2272",
"lon":"-89.5637",
"name":"CapeGirardeauMunicipalAirport",
"city":"ScottCity",
"country":"UnitedStates"},
{
"code":"CGK",
"lat":"-6.11964",
"lon":"106.656",
"name":"JakartaInternationalAirport",
"city":"Tangerang",
"country":"Indonesia"},
{
"code":"CGM",
"lat":"9.173",
"lon":"124.725",
"name":"Philippines",
"city":"Camiguin",
"country":"Philippines"},
{
"code":"CGN",
"lat":"50.8784",
"lon":"7.12293",
"name":"CologneBonnAirport",
"city":"Cologne",
"country":"Germany"},
{
"code":"CGO",
"lat":"34.75",
"lon":"113.65",
"name":"ZhengzhouAirport",
"city":"Zhengzhou",
"country":"China"},
{
"code":"CGP",
"lat":"22.2517",
"lon":"91.815",
"name":"ChittagongAirport",
"city":"Chittagong",
"country":"Bangladesh"},
{
"code":"CGQ",
"lat":"43.9069",
"lon":"125.207",
"name":"DafangShenAirport",
"city":"Changchun",
"country":"China"},
{
"code":"CGR",
"lat":"-20.475",
"lon":"-54.6736",
"name":"CampoGrandeInternationalAirport",
"city":"CampoGrande",
"country":"Brazil"},
{
"code":"CGY",
"lat":"8.4139",
"lon":"124.608",
"name":"CagayandeOroAirport",
"city":"CagayandeOro",
"country":"Philippines"},
{
"code":"CHA",
"lat":"35.0373",
"lon":"-85.1966",
"name":"ChattanoogaMetropolitanAirport",
"city":"Chattanooga",
"country":"UnitedStates"},
{
"code":"CHC",
"lat":"-43.4859",
"lon":"172.534",
"name":"ChristchurchInternationalAirport",
"city":"Christchurch",
"country":"NewZealand"},
{
"code":"CHO",
"lat":"38.14",
"lon":"-78.4487",
"name":"CharlottesvilleAlbemarleAirport",
"city":"Earlysville",
"country":"UnitedStates"},
{
"code":"CHQ",
"lat":"35.5319",
"lon":"24.1489",
"name":"SoudaAirport",
"city":"Canea",
"country":"Greece"},
{
"code":"CHS",
"lat":"32.8838",
"lon":"-80.0356",
"name":"CharlestonInternationalAirport",
"city":"NorthCharleston",
"country":"UnitedStates"},
{
"code":"CHT",
"lat":"-37.9723",
"lon":"174.566",
"name":"Karewa",
"city":"ChathamIsland",
"country":"NewZealand"},
{
"code":"CHU",
"lat":"61.5769",
"lon":"-159.244",
"name":"Chuathbaluk",
"city":"Chuathbaluk",
"country":"UnitedStates"},
{
"code":"CHY",
"lat":"-6.7",
"lon":"156.45",
"name":"ChoiseulBay",
"city":"ChoiseulBay",
"country":"SolomonIslands"},
{
"code":"CIA",
"lat":"41.8004",
"lon":"12.5908",
"name":"CiampinoAirport",
"city":"Rome",
"country":"Italy"},
{
"code":"CIC",
"lat":"39.7987",
"lon":"-121.854",
"name":"ChicoMunicipalAirport",
"city":"Chico",
"country":"UnitedStates"},
{
"code":"CID",
"lat":"41.8893",
"lon":"-91.7008",
"name":"CedarRapidsMunicipalAirport",
"city":"CedarRapids",
"country":"UnitedStates"},
{
"code":"CIF",
"lat":"42.3333",
"lon":"119.008",
"name":"Chifeng",
"city":"Chifeng",
"country":"China"},
{
"code":"CIH",
"lat":"36.1833",
"lon":"113.133",
"name":"Changzhi",
"city":"Changzhi",
"country":"China"},
{
"code":"CIJ",
"lat":"-11.0178",
"lon":"-68.759",
"name":"E.BeltramAirport",
"city":"Cobija",
"country":"Bolivia"},
{
"code":"CIK",
"lat":"66.65",
"lon":"-143.75",
"name":"ChalkyitsikAirport",
"city":"Chalkyitsik",
"country":"UnitedStates"},
{
"code":"CIP",
"lat":"-11.1358",
"lon":"-38.5205",
"name":"",
"city":"Chipata",
"country":"Zambia"},
{
"code":"CIT",
"lat":"39.89",
"lon":"-78.0166",
"name":"",
"city":"Shimkent",
"country":"Kazakhstan"},
{
"code":"CIU",
"lat":"46.2581",
"lon":"-84.4739",
"name":"ChippewaCountyInternationalAirport",
"city":"Kincheloe",
"country":"UnitedStates"},
{
"code":"CIW",
"lat":"12.7187",
"lon":"-61.3306",
"name":"CanouanAirport",
"city":"CanouanIsland",
"country":"SaintVincentandtheGrenadines"},
{
"code":"CIX",
"lat":"-6.7897",
"lon":"-79.8322",
"name":"CapJAQuinonesGonzalesAirport",
"city":"Chiclayo",
"country":"Peru"},
{
"code":"CJA",
"lat":"-7.1322",
"lon":"-78.4889",
"name":"MajGenFapARIglesiasAirport",
"city":"Cajamarca",
"country":"Peru"},
{
"code":"CJB",
"lat":"11.0233",
"lon":"77.0482",
"name":"PeelameduAirport",
"city":"Coimbatore",
"country":"India"},
{
"code":"CJC",
"lat":"-22.4944",
"lon":"-68.9017",
"name":"ElLoaAirport",
"city":"Calama",
"country":"Chile"},
{
"code":"CJJ",
"lat":"36.7131",
"lon":"127.509",
"name":"CheongjuInternationalAirport",
"city":"Naesu-Eup",
"country":"SouthKorea"},
{
"code":"CJL",
"lat":"35.8861",
"lon":"71.7944",
"name":"ChitralAirport",
"city":"Chitral",
"country":"Pakistan"},
{
"code":"CJS",
"lat":"31.6361",
"lon":"-106.428",
"name":"CiudadJuarezInternationalAirport",
"city":"CiudadJuarez",
"country":"Mexico"},
{
"code":"CJU",
"lat":"33.5056",
"lon":"126.495",
"name":"ChejuInternationalAirport",
"city":"Jeju-Si",
"country":"SouthKorea"},
{
"code":"CKB",
"lat":"39.2967",
"lon":"-80.2314",
"name":"BenedumAirport",
"city":"Clarksburg",
"country":"UnitedStates"},
{
"code":"CKD",
"lat":"61.8667",
"lon":"-158.133",
"name":"CrookedCreekAirport",
"city":"Aniak",
"country":"UnitedStates"},
{
"code":"CKG",
"lat":"29.5833",
"lon":"106.5",
"name":"ChongqingJiangbeiInternational",
"city":"Chongqing",
"country":"China"},
{
"code":"CKH",
"lat":"70.6416",
"lon":"147.933",
"name":"Russia",
"city":"Chokurdah",
"country":"Russia"},
{
"code":"CKS",
"lat":"-6.1175",
"lon":"-50.0036",
"name":"CarajasAirport",
"city":"Carajas",
"country":"Brazil"},
{
"code":"CKX",
"lat":"64.0833",
"lon":"-141.917",
"name":"ChickenAirport",
"city":"Tok",
"country":"UnitedStates"},
{
"code":"CKY",
"lat":"9.5764",
"lon":"-13.6108",
"name":"ConakryAirport",
"city":"Conakry",
"country":"Guinea"},
{
"code":"CKZ",
"lat":"40.1553",
"lon":"26.4142",
"name":"Abydus",
"city":"Canakkale",
"country":"Turkey"},
{
"code":"CLD",
"lat":"33.1255",
"lon":"-117.275",
"name":"McclellanPalomarAirport",
"city":"Carlsbad",
"country":"UnitedStates"},
{
"code":"CLE",
"lat":"41.4115",
"lon":"-81.8339",
"name":"HopkinsInternationalAirport",
"city":"Cleveland",
"country":"UnitedStates"},
{
"code":"CLJ",
"lat":"46.7902",
"lon":"23.6984",
"name":"SomeseniAirport",
"city":"Clausemburgo",
"country":"Romania"},
{
"code":"CLL",
"lat":"30.5938",
"lon":"-96.3685",
"name":"EasterwoodFieldAirport",
"city":"CollegeStation",
"country":"UnitedStates"},
{
"code":"CLM",
"lat":"48.1155",
"lon":"-123.491",
"name":"WilliamRFairchildInternationalAirport",
"city":"PortAngeles",
"country":"UnitedStates"},
{
"code":"CLO",
"lat":"3.5461",
"lon":"-76.385",
"name":"AlfonsoBonillaAragonInternationalAirport",
"city":"Obando",
"country":"Colombia"},
{
"code":"CLP",
"lat":"58.8517",
"lon":"-158.51",
"name":"ClarksPointAirport",
"city":"ClarksPoint",
"country":"UnitedStates"},
{
"code":"CLQ",
"lat":"19.2733",
"lon":"-103.577",
"name":"ColimaAirport",
"city":"Cuauhtémoc",
"country":"Mexico"},
{
"code":"CLT",
"lat":"35.2226",
"lon":"-80.946",
"name":"DouglasInternationalAirport",
"city":"Charlotte",
"country":"UnitedStates"},
{
"code":"CLY",
"lat":"42.5295",
"lon":"8.79677",
"name":"SteCatherineAirport",
"city":"Calenzana",
"country":"France"},
{
"code":"CMA",
"lat":"-28.0333",
"lon":"145.617",
"name":"Cunnamulla",
"city":"Cunnamulla",
"country":"Australia"},
{
"code":"CMB",
"lat":"7.1806",
"lon":"79.8856",
"name":"KatunayakeInternationalAirport",
"city":"Gampaha",
"country":"SriLanka"},
{
"code":"CME",
"lat":"18.6522",
"lon":"-91.8011",
"name":"CiudaddelCarmenAirport",
"city":"CarmenOlorón",
"country":"Mexico"},
{
"code":"CMF",
"lat":"45.6375",
"lon":"5.88291",
"name":"AixlesBainsAirport",
"city":"LaMotte",
"country":"France"},
{
"code":"CMG",
"lat":"-19.0055",
"lon":"-57.7055",
"name":"CorumbaInternationalAirport",
"city":"Corumba",
"country":"Brazil"},
{
"code":"CMH",
"lat":"39.9974",
"lon":"-82.8877",
"name":"PortColumbusInternationalAirport",
"city":"Columbus",
"country":"UnitedStates"},
{
"code":"CMI",
"lat":"40.0367",
"lon":"-88.2638",
"name":"UniversityofIllinois-WillardAirport",
"city":"Savoy",
"country":"UnitedStates"},
{
"code":"CMN",
"lat":"33.365",
"lon":"-7.5817",
"name":"MohamedVAirport",
"city":"Casablanca",
"country":"Morocco"},
{
"code":"CMU",
"lat":"-6.0283",
"lon":"44.9717",
"name":"ChimbuAirport",
"city":"Kundiawa",
"country":"PapuaNewGuinea"},
{
"code":"CMW",
"lat":"21.4186",
"lon":"-77.8458",
"name":"IgnacioAgramonteAirport",
"city":"Camagüey",
"country":"Cuba"},
{
"code":"CMX",
"lat":"47.1689",
"lon":"-88.4942",
"name":"HoughtonCountyMemorialAirport",
"city":"Hancock",
"country":"UnitedStates"},
{
"code":"CNB",
"lat":"-30.9742",
"lon":"148.381",
"name":"CoonambleAirport",
"city":"Coonamble",
"country":"Australia"},
{
"code":"CNC",
"lat":"-10.0505",
"lon":"143.069",
"name":"Australia",
"city":"CoconutIsland",
"country":"Australia"},
{
"code":"CND",
"lat":"44.3581",
"lon":"28.4896",
"name":"ConstantaMihailKogalniceanuAirport",
"city":"Kustenje",
"country":"Romania"},
{
"code":"CNF",
"lat":"-19.6242",
"lon":"-43.9717",
"name":"TancredoNevesInternationalAirport",
"city":"Confins",
"country":"Brazil"},
{
"code":"CNJ",
"lat":"-20.6657",
"lon":"140.508",
"name":"CloncurryAerodrome",
"city":"Cloncurry",
"country":"Australia"},
{
"code":"CNM",
"lat":"32.3458",
"lon":"-104.251",
"name":"CavernCityAirTerminalAirport",
"city":"Carlsbad",
"country":"UnitedStates"},
{
"code":"CNP",
"lat":"70.7431",
"lon":"-22.6583",
"name":"NeerleritInaat",
"city":"NeerleritInaat",
"country":"Greenland"},
{
"code":"CNQ",
"lat":"-27.4497",
"lon":"-58.7622",
"name":"CorrientesAirport",
"city":"Corrientes",
"country":"Argentina"},
{
"code":"CNS",
"lat":"-16.8831",
"lon":"145.753",
"name":"CairnsInternationalAirport",
"city":"Cairns",
"country":"Australia"},
{
"code":"CNX",
"lat":"18.7714",
"lon":"98.9628",
"name":"ChiangMaiInternationalAirport",
"city":"ChiangMai",
"country":"Thailand"},
{
"code":"CNY",
"lat":"38.7609",
"lon":"-109.742",
"name":"CanyonlandsFieldAirport",
"city":"Thompson",
"country":"UnitedStates"},
{
"code":"COD",
"lat":"44.5134",
"lon":"-109.031",
"name":"YellowstoneRegionalAirport",
"city":"Cody/Yellowstone",
"country":"UnitedStates"},
{
"code":"COK",
"lat":"9.93997",
"lon":"76.2748",
"name":"KochiAirport",
"city":"Kochi",
"country":"India"},
{
"code":"COL",
"lat":"56.6167",
"lon":"-6.61667",
"name":"CollIslandAirport",
"city":"Isleofcoll",
"country":"UnitedKingdom"},
{
"code":"COO",
"lat":"6.3542",
"lon":"2.3856",
"name":"CotonouCadjehonAirport",
"city":"Cotonou",
"country":"Benin"},
{
"code":"COQ",
"lat":"48.1366",
"lon":"114.65",
"name":"ChoybalsanNortheastAirport",
"city":"Choibalsan",
"country":"Mongolia"},
{
"code":"COR",
"lat":"-31.3131",
"lon":"-64.1994",
"name":"IngenieroAmbrosioL.V.TaravellaInternational",
"city":"Cordoba",
"country":"Argentina"},
{
"code":"COS",
"lat":"38.7829",
"lon":"-104.697",
"name":"CityofColoradoSpringsMunicipalAirport",
"city":"ColoradoSprings",
"country":"UnitedStates"},
{
"code":"COU",
"lat":"38.8174",
"lon":"-92.2218",
"name":"ColumbiaRegionalAirport",
"city":"Columbia",
"country":"UnitedStates"},
{
"code":"CPC",
"lat":"-40.0758",
"lon":"-71.1392",
"name":"ChapelcoAirport",
"city":"SanMartinDeLosAndes",
"country":"Argentina"},
{
"code":"CPD",
"lat":"-29.0378",
"lon":"134.724",
"name":"CooberPedyAerodrome",
"city":"CooberPedy",
"country":"Australia"},
{
"code":"CPE",
"lat":"19.8158",
"lon":"-90.5008",
"name":"IgnacioAlbertoAcunaOngayAirport",
"city":"Campeche",
"country":"Mexico"},
{
"code":"CPH",
"lat":"55.6205",
"lon":"12.6495",
"name":"CopenhagenAirport",
"city":"Kastrup",
"country":"Denmark"},
{
"code":"CPO",
"lat":"-27.2933",
"lon":"-70.4122",
"name":"ChamonateAirport",
"city":"Copiapó",
"country":"Chile"},
{
"code":"CPQ",
"lat":"-23",
"lon":"-47.1333",
"name":"CampinasInternationalAirport",
"city":"Campinas",
"country":"Brazil"},
{
"code":"CPR",
"lat":"42.8966",
"lon":"-106.465",
"name":"NatronaCountyInternationalAirport",
"city":"Casper",
"country":"UnitedStates"},
{
"code":"CPT",
"lat":"-33.9647",
"lon":"18.6022",
"name":"DFMalanAirport",
"city":"CapeTown",
"country":"SouthAfrica"},
{
"code":"CPV",
"lat":"-7.2689",
"lon":"-35.8947",
"name":"PresidenteJoaoSuassunaAirport",
"city":"CampinaGrande",
"country":"Brazil"},
{
"code":"CPX",
"lat":"18.3204",
"lon":"-65.2929",
"name":"CulebraAirport",
"city":"Culebra",
"country":"UnitedStates"},
{
"code":"CQD",
"lat":"32.2967",
"lon":"50.8417",
"name":"Shahre-Kord",
"city":"Shahre-Kord",
"country":"Iran"},
{
"code":"CRA",
"lat":"44.3173",
"lon":"23.8447",
"name":"CraiovaAirport",
"city":"Croiova",
"country":"Romania"},
{
"code":"CRD",
"lat":"-45.7872",
"lon":"-67.4628",
"name":"GeneralEnriqueMosconiAirport",
"city":"ComodoroRivadavia",
"country":"Argentina"},
{
"code":"CRI",
"lat":"22.7467",
"lon":"-74.18",
"name":"ColonelHillAirport",
"city":"ColonelHill",
"country":"Bahamas"},
{
"code":"CRK",
"lat":"15.1806",
"lon":"120.557",
"name":"ClarkFieldAirport",
"city":"Mabalacat",
"country":"Philippines"},
{
"code":"CRL",
"lat":"50.4601",
"lon":"4.45878",
"name":"GosseliesAirport",
"city":"Charleroi",
"country":"Belgium"},
{
"code":"CRM",
"lat":"12.5044",
"lon":"124.635",
"name":"CatarmanAirport",
"city":"Catarman",
"country":"Philippines"},
{
"code":"CRP",
"lat":"27.7747",
"lon":"-97.5019",
"name":"CorpusChristiInternationalAirport",
"city":"CorpusChristi",
"country":"UnitedStates"},
{
"code":"CRW",
"lat":"38.3697",
"lon":"-81.5951",
"name":"YeagerAirport",
"city":"Charleston",
"country":"UnitedStates"},
{
"code":"CSA",
"lat":"56.0603",
"lon":"-6.22418",
"name":"IsleOfColonsay",
"city":"IsleOfColonsay",
"country":"UnitedKingdom"},
{
"code":"CSG",
"lat":"32.5184",
"lon":"-84.9401",
"name":"ColumbusMetropolitanAirport",
"city":"Columbus",
"country":"UnitedStates"},
{
"code":"CSH",
"lat":"65.05",
"lon":"35.6667",
"name":"Solovky",
"city":"Solovetsky",
"country":"RussianFederation"},
{
"code":"CSK",
"lat":"12.3953",
"lon":"-16.7514",
"name":"CapSkiringAirport",
"city":"CapSkirring",
"country":"Senegal"},
{
"code":"CSX",
"lat":"28.0711",
"lon":"112.958",
"name":"HuanghuaAirport",
"city":"Changsha",
"country":"China"},
{
"code":"CSY",
"lat":"56.1311",
"lon":"47.2882",
"name":"Russia",
"city":"Cheboksary",
"country":"Russia"},
{
"code":"CTA",
"lat":"37.4696",
"lon":"15.0672",
"name":"CataniaFontanarossaAirport",
"city":"Catania",
"country":"Italy"},
{
"code":"CTC",
"lat":"-28.5939",
"lon":"-65.7542",
"name":"CatamarcaAirport",
"city":"SanIsidro",
"country":"Argentina"},
{
"code":"CTG",
"lat":"10.4481",
"lon":"-75.5106",
"name":"RafaelNunezAirport",
"city":"LaBoquilla",
"country":"Colombia"},
{
"code":"CTL",
"lat":"-26.4135",
"lon":"146.263",
"name":"CharlevilleAerodrome",
"city":"Charleville",
"country":"Australia"},
{
"code":"CTM",
"lat":"18.5039",
"lon":"-88.3247",
"name":"ChetumalInternationalAirport",
"city":"Chetumal",
"country":"Mexico"},
{
"code":"CTS",
"lat":"42.7757",
"lon":"141.691",
"name":"NewChitoseAirport",
"city":"Chitose-shi",
"country":"Japan"},
{
"code":"CTU",
"lat":"30.5775",
"lon":"103.941",
"name":"ChengdushuangLiuAirport",
"city":"Chengdu",
"country":"China"},
{
"code":"CUC",
"lat":"7.93",
"lon":"-72.5094",
"name":"CamiloDazaAirport",
"city":"Cúcuta",
"country":"Colombia"},
{
"code":"CUE",
"lat":"-2.8867",
"lon":"-78.9833",
"name":"MariscalLamarAirport",
"city":"Cuenca",
"country":"Ecuador"},
{
"code":"CUF",
"lat":"44.5466",
"lon":"7.61998",
"name":"LevaldigiAirport",
"city":"Fossano",
"country":"Italy"},
{
"code":"CUK",
"lat":"17.4956",
"lon":"-88.1816",
"name":"Belize",
"city":"CayeCaulker",
"country":"Belize"},
{
"code":"CUL",
"lat":"24.7644",
"lon":"-107.474",
"name":"CuliacanAirport",
"city":"Culiacan",
"country":"Mexico"},
{
"code":"CUM",
"lat":"10.4539",
"lon":"-64.1297",
"name":"AntonioJosedeSucreAirport",
"city":"Cumaná",
"country":"Venezuela"},
{
"code":"CUN",
"lat":"21.0406",
"lon":"-86.8744",
"name":"CancunAirport",
"city":"Cancun",
"country":"Mexico"},
{
"code":"CUP",
"lat":"10.6589",
"lon":"-63.2625",
"name":"GenJoseFranciscoBermudezAirport",
"city":"ElPilar",
"country":"Venezuela"},
{
"code":"CUR",
"lat":"12.188",
"lon":"-68.9634",
"name":"HatoAirport",
"city":"Curacao",
"country":"NetherlandsAntilles"},
{
"code":"CUU",
"lat":"28.7028",
"lon":"-105.964",
"name":"GeneralRFVillalobosInternationalAirport",
"city":"Chihuahua",
"country":"Mexico"},
{
"code":"CUZ",
"lat":"-13.5308",
"lon":"-71.9472",
"name":"VelazcoAsteteAirport",
"city":"SanSebastián",
"country":"Peru"},
{
"code":"CVG",
"lat":"39.0571",
"lon":"-84.6625",
"name":"GreaterCincinnatiInternationalAirport",
"city":"Hebron",
"country":"UnitedStates"},
{
"code":"CVM",
"lat":"23.7139",
"lon":"-98.9653",
"name":"CiudadVictoriaAirport",
"city":"Güémez",
"country":"Mexico"},
{
"code":"CVN",
"lat":"34.4271",
"lon":"-103.087",
"name":"ClovisMunicipalAirport",
"city":"Texico",
"country":"UnitedStates"},
{
"code":"CVQ",
"lat":"-24.8801",
"lon":"113.669",
"name":"CarnarvonAirport",
"city":"Carnarvon",
"country":"Australia"},
{
"code":"CVT",
"lat":"52.367",
"lon":"-1.4895",
"name":"CoventryAirport",
"city":"Coventry",
"country":"UnitedKingdom"},
{
"code":"CVU",
"lat":"39.7",
"lon":"-31.1",
"name":"CorvoIslandAirport",
"city":"Corvo",
"country":"Portugal"},
{
"code":"CWA",
"lat":"44.7846",
"lon":"-89.6704",
"name":"CentralWisconsinAirport",
"city":"Mosinee",
"country":"UnitedStates"},
{
"code":"CWB",
"lat":"-25.5275",
"lon":"-49.1731",
"name":"AfonsoPenaInternationalAirport",
"city":"SaoJosedosPinhais",
"country":"Brazil"},
{
"code":"CWC",
"lat":"48.2526",
"lon":"25.976",
"name":"ChernovtsyAirport",
"city":"Chernivtsi",
"country":"Ukraine"},
{
"code":"CWL",
"lat":"51.3998",
"lon":"-3.34475",
"name":"CardiffInternationalAirport",
"city":"Barry",
"country":"UnitedKingdom"},
{
"code":"CXB",
"lat":"21.45",
"lon":"91.9681",
"name":"CoxsBazarAirport",
"city":"Cox'sBazar",
"country":"Bangladesh"},
{
"code":"CXH",
"lat":"49.5912",
"lon":"-125.848",
"name":"CoalHarbourAirport",
"city":"Vancouver",
"country":"Canada"},
{
"code":"CXI",
"lat":"1.9849",
"lon":"-157.675",
"name":"ChristmasIslandAirport",
"city":"ChristmasIsland",
"country":"Kiribati"},
{
"code":"CXJ",
"lat":"-29.1961",
"lon":"-51.1906",
"name":"CampodosBugresAirport",
"city":"CaxiasdoSul",
"country":"Brazil"},
{
"code":"CXR",
"lat":"12.2333",
"lon":"109.2",
"name":"Nha-TrangAirport",
"city":"NhaTrang",
"country":"Vietnam"},
{
"code":"CYB",
"lat":"19.689",
"lon":"-79.8848",
"name":"GerrardSmithAirport",
"city":"CaymanBracIs",
"country":"CaymanIslands"},
{
"code":"CYF",
"lat":"60.1558",
"lon":"-164.273",
"name":"ChefornakAirport",
"city":"Chefornak",
"country":"UnitedStates"},
{
"code":"CYI",
"lat":"23.4542",
"lon":"120.404",
"name":"ChaiyiAirport",
"city":"ChiayiCity",
"country":"Taiwan"},
{
"code":"CYO",
"lat":"21.6169",
"lon":"-81.5422",
"name":"CayoLargodelsurAirport",
"city":"CayoLargoDelSur",
"country":"Cuba"},
{
"code":"CYP",
"lat":"12.0722",
"lon":"124.544",
"name":"CalbayogAirport",
"city":"Calbayog",
"country":"Philippines"},
{
"code":"CYS",
"lat":"41.1527",
"lon":"-104.819",
"name":"CheyenneAirport",
"city":"Cheyenne",
"country":"UnitedStates"},
{
"code":"CYU",
"lat":"10.8762",
"lon":"121.064",
"name":"Cuyo",
"city":"Cuyo",
"country":"Philippines"},
{
"code":"CYX",
"lat":"68.75",
"lon":"161.35",
"name":"Cherskiy",
"city":"Cherskiy",
"country":"RussianFederation"},
{
"code":"CYZ",
"lat":"16.93",
"lon":"121.756",
"name":"CauayanAirport",
"city":"Cauayan",
"country":"Philippines"},
{
"code":"CZE",
"lat":"11.4158",
"lon":"-69.6819",
"name":"JoseLeonardoChirinosAirport",
"city":"LaVeladeCoro",
"country":"Venezuela"},
{
"code":"CZH",
"lat":"18.3696",
"lon":"-88.4307",
"name":"CorozalAirport",
"city":"Corozal",
"country":"Belize"},
{
"code":"CZL",
"lat":"36.2778",
"lon":"6.6247",
"name":"AinElBeyAirport",
"city":"Constantine",
"country":"Algeria"},
{
"code":"CZM",
"lat":"20.5242",
"lon":"-86.9264",
"name":"CozumelInternationalAirport",
"city":"SanMigueldeCozumel",
"country":"Mexico"},
{
"code":"CZN",
"lat":"62.0833",
"lon":"-142.05",
"name":"ChisanaAirport",
"city":"Gakona",
"country":"UnitedStates"},
{
"code":"CZS",
"lat":"-7.5994",
"lon":"-72.7697",
"name":"CruzeirodoSulInternationalAirport",
"city":"CruzeiroDoSul",
"country":"Brazil"},
{
"code":"CZU",
"lat":"9.3375",
"lon":"-75.2828",
"name":"LasBrujasAirport",
"city":"Morroa",
"country":"Colombia"},
{
"code":"CZX",
"lat":"31.7833",
"lon":"119.95",
"name":"ChangzhouAirport",
"city":"Changzhou",
"country":"China"},
{
"code":"DAB",
"lat":"29.1874",
"lon":"-81.0615",
"name":"DaytonaBeachInternationalAirport",
"city":"DaytonaBeach",
"country":"UnitedStates"},
{
"code":"DAC",
"lat":"23.8379",
"lon":"90.3948",
"name":"ZiaInternationalAirportDhaka",
"city":"Dhaka",
"country":"Bangladesh"},
{
"code":"DAD",
"lat":"16.05",
"lon":"108.2",
"name":"DaNangAirport",
"city":"Tourane",
"country":"Vietnam"},
{
"code":"DAL",
"lat":"32.8439",
"lon":"-96.8496",
"name":"DallasLoveFieldAirport",
"city":"Dallas",
"country":"UnitedStates"},
{
"code":"DAM",
"lat":"33.4139",
"lon":"36.5178",
"name":"DamascusInternationalAirport",
"city":"Damascus",
"country":"Syria"},
{
"code":"DAR",
"lat":"-6.8753",
"lon":"39.2019",
"name":"DarEsSalaamAirport",
"city":"DaresSalaam",
"country":"Tanzania"},
{
"code":"DAT",
"lat":"45.3666",
"lon":"-102.682",
"name":"",
"city":"Datong",
"country":"China"},
{
"code":"DAU",
"lat":"-9.0878",
"lon":"143.195",
"name":"DaruAirport",
"city":"Daru",
"country":"PapuaNewGuinea"},
{
"code":"DAX",
"lat":"31.1336",
"lon":"107.419",
"name":"DaxianAirport",
"city":"Daxian",
"country":"China"},
{
"code":"DAY",
"lat":"39.8968",
"lon":"-84.2207",
"name":"JamesMCoxDaytonInternationalAirport",
"city":"Dayton",
"country":"UnitedStates"},
{
"code":"DBA",
"lat":"30.4419",
"lon":"69.3597",
"name":"Pakistan",
"city":"Dalbandin",
"country":"Pakistan"},
{
"code":"DBO",
"lat":"-32.2183",
"lon":"148.574",
"name":"DubboAirport",
"city":"Dubbo",
"country":"Australia"},
{
"code":"DBQ",
"lat":"42.4047",
"lon":"-90.7037",
"name":"DubuqueRegionalAirport",
"city":"Dubuque",
"country":"UnitedStates"},
{
"code":"DBV",
"lat":"42.5631",
"lon":"18.2692",
"name":"DubrovnikAirport",
"city":"Dubrovnik",
"country":"Croatia"},
{
"code":"DCA",
"lat":"38.849",
"lon":"-77.0438",
"name":"WashingtonNationalAirport",
"city":"Arlington",
"country":"UnitedStates"},
{
"code":"DCF",
"lat":"15.5333",
"lon":"-61.4",
"name":"CaneFieldAirport",
"city":"Portsmouth",
"country":"Dominica"},
{
"code":"DCM",
"lat":"43.5538",
"lon":"2.28923",
"name":"MazametAirport",
"city":"Labruguière",
"country":"France"},
{
"code":"DDC",
"lat":"37.7573",
"lon":"-99.9697",
"name":"DodgeCityRegionalAirport",
"city":"DodgeCity",
"country":"UnitedStates"},
{
"code":"DDG",
"lat":"40.0242",
"lon":"124.283",
"name":"DandongAirport",
"city":"Dandong",
"country":"China"},
{
"code":"DEA",
"lat":"40.2483",
"lon":"-74.0007",
"name":"",
"city":"DeraGhaziKhan",
"country":"Pakistan"},
{
"code":"DEC",
"lat":"39.8335",
"lon":"-88.8773",
"name":"DecaturAirport",
"city":"Decatur",
"country":"UnitedStates"},
{
"code":"DED",
"lat":"30.3167",
"lon":"78.0333",
"name":"DehraDun",
"city":"DehraDun",
"country":"India"},
{
"code":"DEF",
"lat":"32.4317",
"lon":"48.3989",
"name":"DezfulAirport",
"city":"Dezful",
"country":"Iran"},
{
"code":"DEL",
"lat":"28.5603",
"lon":"77.1027",
"name":"IndiraGandhiInternationalAirport",
"city":"NewDelhi",
"country":"India"},
{
"code":"DEN",
"lat":"39.8396",
"lon":"-104.672",
"name":"DenverInternationalAirport",
"city":"Denver",
"country":"UnitedStates"},
{
"code":"DEZ",
"lat":"35.2822",
"lon":"40.1744",
"name":"DeirZzorAirport",
"city":"DayrazZawr",
"country":"Syria"},
{
"code":"DFW",
"lat":"32.9222",
"lon":"-97.0409",
"name":"FortWorthInternationalAirport",
"city":"Dallas",
"country":"UnitedStates"},
{
"code":"DGA",
"lat":"16.9757",
"lon":"-88.235",
"name":"DangrigaAirport",
"city":"Dangriga",
"country":"Belize"},
{
"code":"DGE",
"lat":"-32.5613",
"lon":"149.618",
"name":"MudgeeAerodrome",
"city":"AppleTreeFlat",
"country":"Australia"},
{
"code":"DGM",
"lat":"27.0667",
"lon":"105.2",
"name":"Dongguan",
"city":"Dongguan",
"country":"China"},
{
"code":"DGO",
"lat":"24.1283",
"lon":"-104.527",
"name":"DurangoAirport",
"city":"Durango",
"country":"Mexico"},
{
"code":"DGT",
"lat":"9.3358",
"lon":"123.301",
"name":"DumagueteAirport",
"city":"Sibulan",
"country":"Philippines"},
{
"code":"DHM",
"lat":"32.3",
"lon":"76.2667",
"name":"GaggalAirport",
"city":"Dharamsala",
"country":"India"},
{
"code":"DHN",
"lat":"31.3144",
"lon":"-85.4487",
"name":"DothanAirport",
"city":"Dothan",
"country":"UnitedStates"},
{
"code":"DIB",
"lat":"27.4839",
"lon":"95.0208",
"name":"MohanbariAirport",
"city":"Dikhari",
"country":"India"},
{
"code":"DIE",
"lat":"-12.3461",
"lon":"49.2925",
"name":"AntsirananaArrachartAirport",
"city":"Antseranana",
"country":"Madagascar"},
{
"code":"DIG",
"lat":"26.1256",
"lon":"109.308",
"name":"Diqing",
"city":"Diqing",
"country":"China"},
{
"code":"DIK",
"lat":"46.8035",
"lon":"-102.802",
"name":"DickinsonMunicipalAirport",
"city":"Dickinson",
"country":"UnitedStates"},
{
"code":"DIL",
"lat":"-8.5533",
"lon":"125.526",
"name":"Comoro",
"city":"Dili",
"country":"Indonesia"},
{
"code":"DIN",
"lat":"38.5686",
"lon":"-81.0596",
"name":"DienBien",
"city":"DienBienPhu",
"country":"Vietnam"},
{
"code":"DIR",
"lat":"9.6244",
"lon":"41.8536",
"name":"AbaTennaDejazmatchYilmaAirport",
"city":"DireDawa",
"country":"Ethiopia"},
{
"code":"DIS",
"lat":"-4.21667",
"lon":"12.5",
"name":"Loubomo",
"city":"Loubomo",
"country":"Congo"},
{
"code":"DIU",
"lat":"20.7134",
"lon":"70.9217",
"name":"DiuAirport",
"city":"Diu",
"country":"India"},
{
"code":"DIY",
"lat":"37.8947",
"lon":"40.2019",
"name":"DiyarbakirAirport",
"city":"Diyaribakir",
"country":"Turkey"},
{
"code":"DJB",
"lat":"-1.6369",
"lon":"103.639",
"name":"SultanTahaAirport",
"city":"Jambi",
"country":"Indonesia"},
{
"code":"DJE",
"lat":"33.8764",
"lon":"10.7792",
"name":"ZarzisAirport",
"city":"HawmatasSuq",
"country":"Tunisia"},
{
"code":"DJG",
"lat":"24.2625",
"lon":"9.4428",
"name":"TiskaAirport",
"city":"Illizi",
"country":"Algeria"},
{
"code":"DJJ",
"lat":"-2.575",
"lon":"140.514",
"name":"SentaniAirport",
"city":"Jayapura",
"country":"Indonesia"},
{
"code":"DKR",
"lat":"14.7417",
"lon":"-17.4931",
"name":"DakarYoffAirport",
"city":"Ngor",
"country":"Senegal"},
{
"code":"DLA",
"lat":"4.0133",
"lon":"9.7097",
"name":"DoualaAirport",
"city":"Douala",
"country":"Cameroon"},
{
"code":"DLC",
"lat":"38.9617",
"lon":"121.543",
"name":"ChouShuiTzuAirport",
"city":"Dalian",
"country":"China"},
{
"code":"DLG",
"lat":"59.0445",
"lon":"-158.513",
"name":"DillinghamMunicipalAirport",
"city":"Dillingham",
"country":"UnitedStates"},
{
"code":"DLH",
"lat":"46.838",
"lon":"-92.1781",
"name":"DuluthInternationalAirport",
"city":"Duluth",
"country":"UnitedStates"},
{
"code":"DLI",
"lat":"11.7501",
"lon":"108.377",
"name":"LienKhuongAirport",
"city":"LamDong",
"country":"Vietnam"},
{
"code":"DLM",
"lat":"36.7125",
"lon":"28.7922",
"name":"DalamanAirport",
"city":"Ortaca",
"country":"Turkey"},
{
"code":"DLU",
"lat":"25.5667",
"lon":"100.233",
"name":"Dali",
"city":"DaliCity",
"country":"China"},
{
"code":"DLY",
"lat":"-16.6619",
"lon":"168.38",
"name":"Vanuatu",
"city":"DillonsBay",
"country":"Vanuatu"},
{
"code":"DLZ",
"lat":"43.9667",
"lon":"104.683",
"name":"Dalanzadgad",
"city":"Dalanzadgad",
"country":"Mongolia"},
{
"code":"DMD",
"lat":"-18",
"lon":"138.833",
"name":"Doomadgee",
"city":"Doomadgee",
"country":"Australia"},
{
"code":"DME",
"lat":"55.4025",
"lon":"37.9136",
"name":"DomodedovoAirport",
"city":"Podol'sk",
"country":"Russia"},
{
"code":"DMK",
"lat":"13.9181",
"lon":"100.59",
"name":"DonMueang",
"city":"DonMuang",
"country":"Thailand"},
{
"code":"DMM",
"lat":"26.4722",
"lon":"49.8058",
"name":"KingFahdInternationalAirport",
"city":"Khuwaylidiyah",
"country":"SaudiArabia"},
{
"code":"DMU",
"lat":"25.8839",
"lon":"93.7736",
"name":"DimapurAirport",
"city":"Dimapur",
"country":"India"},
{
"code":"DND",
"lat":"56.4538",
"lon":"-3.01347",
"name":"DundeeAirport",
"city":"Dundee",
"country":"UnitedKingdom"},
{
"code":"DNH",
"lat":"40.2",
"lon":"94.6833",
"name":"Dunhuang",
"city":"Dunhuang",
"country":"China"},
{
"code":"DNK",
"lat":"48.368",
"lon":"35.0942",
"name":"VoloskoyeAirport",
"city":"Dnipropetrovs'k",
"country":"Ukraine"},
{
"code":"DNR",
"lat":"48.589",
"lon":"-2.07757",
"name":"PleurtuitAirport",
"city":"Pleurtuit",
"country":"France"},
{
"code":"DNZ",
"lat":"37.7667",
"lon":"29.1",
"name":"CardakAirport",
"city":"Denizli",
"country":"Turkey"},
{
"code":"DOG",
"lat":"19.1833",
"lon":"30.4833",
"name":"DongolaAirport",
"city":"Dongola",
"country":"Sudan"},
{
"code":"DOH",
"lat":"25.2592",
"lon":"51.5658",
"name":"DohaInternationalAirport",
"city":"Doha",
"country":"Qatar"},
{
"code":"DOK",
"lat":"48.072",
"lon":"37.7426",
"name":"DonetskAirport",
"city":"Donets'k",
"country":"Ukraine"},
{
"code":"DOM",
"lat":"15.5431",
"lon":"-61.3092",
"name":"MelvilleHallAirport",
"city":"Marigot",
"country":"Dominica"},
{
"code":"DOP",
"lat":"29.217",
"lon":"82.7517",
"name":"Nepal",
"city":"Dolpa",
"country":"Nepal"},
{
"code":"DOU",
"lat":"-22.1978",
"lon":"-54.9225",
"name":"DouradosAirport",
"city":"Dourados",
"country":"Brazil"},
{
"code":"DOY",
"lat":"40.0294",
"lon":"-120.107",
"name":"",
"city":"Dongying",
"country":"China"},
{
"code":"DPL",
"lat":"8.6043",
"lon":"123.348",
"name":"DipologAirport",
"city":"Polanco",
"country":"Philippines"},
{
"code":"DPO",
"lat":"-41.1726",
"lon":"146.425",
"name":"DevonportAirport",
"city":"Devonport",
"country":"Australia"},
{
"code":"DPS",
"lat":"-8.7486",
"lon":"115.165",
"name":"BaliInternationalAirport",
"city":"Denpasar",
"country":"Indonesia"},
{
"code":"DRG",
"lat":"66.0833",
"lon":"-162.767",
"name":"DeeringAirport",
"city":"Deering",
"country":"UnitedStates"},
{
"code":"DRO",
"lat":"37.1595",
"lon":"-107.751",
"name":"DurangolaPlataCountyAirport",
"city":"Durango",
"country":"UnitedStates"},
{
"code":"DRS",
"lat":"51.1688",
"lon":"13.7899",
"name":"OttendorfOkrillaHighwayStripAirport",
"city":"Ottendorf-Okrilla",
"country":"Germany"},
{
"code":"DRT",
"lat":"29.3702",
"lon":"-100.918",
"name":"DelRioInternationalAirport",
"city":"DelRio",
"country":"UnitedStates"},
{
"code":"DRW",
"lat":"-12.4159",
"lon":"130.874",
"name":"DarwinInternationalAirport",
"city":"Darwin",
"country":"Australia"},
{
"code":"DSA",
"lat":"53.3954",
"lon":"-1.38243",
"name":"SheffieldAirport",
"city":"DoncasterSheffield",
"country":"UnitedKingdom"},
{
"code":"DSM",
"lat":"41.5328",
"lon":"-93.6481",
"name":"DesMoinesInternationalAirport",
"city":"DesMoines",
"country":"UnitedStates"},
{
"code":"DSN",
"lat":"39.8295",
"lon":"109.976",
"name":"DongshengAirport",
"city":"Dongsheng",
"country":"China"},
{
"code":"DTM",
"lat":"51.5123",
"lon":"7.60451",
"name":"DortmundAirport",
"city":"Dortmund",
"country":"Germany"},
{
"code":"DTW",
"lat":"42.2327",
"lon":"-83.3412",
"name":"DetroitMetropolitanWayneCountyAirport",
"city":"Detroit",
"country":"UnitedStates"},
{
"code":"DUB",
"lat":"53.4272",
"lon":"-6.24418",
"name":"DublinAirport",
"city":"Cloghran",
"country":"Ireland"},
{
"code":"DUD",
"lat":"-45.9287",
"lon":"170.199",
"name":"DunedinAirport",
"city":"Outram",
"country":"NewZealand"},
{
"code":"DUE",
"lat":"-7.3958",
"lon":"20.8236",
"name":"DundoAirport",
"city":"Dundo",
"country":"Angola"},
{
"code":"DUJ",
"lat":"41.1833",
"lon":"-78.8953",
"name":"DuBoisJeffersonCountyAirport",
"city":"Reynoldsville",
"country":"UnitedStates"},
{
"code":"DUQ",
"lat":"48.7562",
"lon":"-123.711",
"name":"Duncan-QuamichanLakeAirport",
"city":"Duncan",
"country":"Canada"},
{
"code":"DUR",
"lat":"-29.9736",
"lon":"30.9472",
"name":"LouisBothaAirport",
"city":"Durban",
"country":"SouthAfrica"},
{
"code":"DUS",
"lat":"51.2794",
"lon":"6.76481",
"name":"DusseldorfInternationalAirport",
"city":"Dusseldorf",
"country":"Germany"},
{
"code":"DUT",
"lat":"53.896",
"lon":"-166.535",
"name":"UnalaskaAirport",
"city":"Unalaska",
"country":"UnitedStates"},
{
"code":"DVL",
"lat":"48.108",
"lon":"-98.9037",
"name":"DevilsLakeMunicipalAirport",
"city":"DevilsLake",
"country":"UnitedStates"},
{
"code":"DVO",
"lat":"7.1292",
"lon":"125.647",
"name":"FranciscoBangoyInternationalAirport",
"city":"DavaoCity",
"country":"Philippines"},
{
"code":"DWB",
"lat":"-16.1",
"lon":"45.3667",
"name":"Soalala",
"city":"Soalala",
"country":"Madagascar"},
{
"code":"DWD",
"lat":"23.9176",
"lon":"45.0811",
"name":"SaudiArabia",
"city":"Dawadmi",
"country":"SaudiArabia"},
{
"code":"DXB",
"lat":"25.2509",
"lon":"55.3629",
"name":"DubaiInternationalAirport",
"city":"Dubai",
"country":"UnitedArabEmirates"},
{
"code":"DYG",
"lat":"29.1333",
"lon":"110.483",
"name":"Dayong",
"city":"Dayong",
"country":"China"},
{
"code":"DYR",
"lat":"64.7358",
"lon":"177.739",
"name":"Anadyr-UgolnyyeKopiAirport",
"city":"Anadyr'",
"country":"Russia"},
{
"code":"DYU",
"lat":"38.5785",
"lon":"68.7773",
"name":"Tajikistan",
"city":"Dushanbe",
"country":"Tajikistan"},
{
"code":"DZA",
"lat":"-12.8",
"lon":"45.2833",
"name":"DzaoudziPamanziAirport",
"city":"Mamoudzou",
"country":"Mayotte"},
{
"code":"DZN",
"lat":"47.7131",
"lon":"67.7065",
"name":"DzhezkazganSouthAirport",
"city":"Zhezqazghan",
"country":"Kazakhstan"},
{
"code":"EAA",
"lat":"64.7667",
"lon":"-141.15",
"name":"EagleAirport",
"city":"Tok",
"country":"UnitedStates"},
{
"code":"EAE",
"lat":"-17.0686",
"lon":"168.381",
"name":"Vanuatu",
"city":"Emae",
"country":"Vanuatu"},
{
"code":"EAL",
"lat":"9.08333",
"lon":"167.333",
"name":"Elenak",
"city":"KwajaleinAtoll",
"country":"MarshallIslands"},
{
"code":"EAM",
"lat":"17.6117",
"lon":"44.4297",
"name":"NejranAirport",
"city":"Najran",
"country":"SaudiArabia"},
{
"code":"EAR",
"lat":"40.7236",
"lon":"-99.0151",
"name":"KearneyMunicipalAirport",
"city":"Kearney",
"country":"UnitedStates"},
{
"code":"EAS",
"lat":"43.3557",
"lon":"-1.79208",
"name":"SanSebastianAirport",
"city":"Hondarribia",
"country":"Spain"},
{
"code":"EAT",
"lat":"47.4048",
"lon":"-120.21",
"name":"PangbornMemorialAirport",
"city":"EastWenatchee",
"country":"UnitedStates"},
{
"code":"EAU",
"lat":"44.8625",
"lon":"-91.4826",
"name":"EauClaireCountyAirport",
"city":"EauClaire",
"country":"UnitedStates"},
{
"code":"EBA",
"lat":"42.7629",
"lon":"10.2383",
"name":"MarinadeCampoAirport",
"city":"Pianosa",
"country":"Italy"},
{
"code":"EBB",
"lat":"0.0417",
"lon":"32.4381",
"name":"EntebbeInternationalAirport",
"city":"Entebbe",
"country":"Uganda"},
{
"code":"EBD",
"lat":"13.1597",
"lon":"30.2342",
"name":"ElObeidAirport",
"city":"AlUbayyid",
"country":"Sudan"},
{
"code":"EBJ",
"lat":"55.5247",
"lon":"8.55388",
"name":"EsbjergAirport",
"city":"Esbjerg",
"country":"Denmark"},
{
"code":"EBL",
"lat":"36.1797",
"lon":"44.016",
"name":"Erbil",
"city":"Erbil",
"country":"Iraq"},
{
"code":"ECN",
"lat":"35.1597",
"lon":"33.4897",
"name":"ErcanAirport",
"city":"Nicosia",
"country":"Cyprus"},
{
"code":"EDA",
"lat":"55.9503",
"lon":"-133.656",
"name":"EdnaBaySeaplaneBase",
"city":"Ketchikan",
"country":"UnitedStates"},
{
"code":"EDI",
"lat":"55.9486",
"lon":"-3.36431",
"name":"EdinburghInternationalAirport",
"city":"Edinburgh",
"country":"UnitedKingdom"},
{
"code":"EDL",
"lat":"0.5375",
"lon":"35.2783",
"name":"EldoretAirport",
"city":"Nakuru",
"country":"Kenya"},
{
"code":"EDO",
"lat":"39.599",
"lon":"27.0221",
"name":"Edremit-KorfezAirport",
"city":"Edremit",
"country":"Turkey"},
{
"code":"EDR",
"lat":"-14.9",
"lon":"141.617",
"name":"EdwardRiver",
"city":"EdwardRiver",
"country":"Australia"},
{
"code":"EEK",
"lat":"60.2167",
"lon":"-162.017",
"name":"EekAirport",
"city":"Eek",
"country":"UnitedStates"},
{
"code":"EFL",
"lat":"38.1181",
"lon":"20.5003",
"name":"KefalliniaAirport",
"city":"Dhilianata",
"country":"Greece"},
{
"code":"EGC",
"lat":"44.8227",
"lon":"0.51524",
"name":"Bergerac-RoumaniereAirport",
"city":"Bergerac",
"country":"France"},
{
"code":"EGE",
"lat":"39.6395",
"lon":"-106.912",
"name":"EagleCountyRegionalAirport",
"city":"Gypsum",
"country":"UnitedStates"},
{
"code":"EGN",
"lat":"13.4833",
"lon":"22.45",
"name":"",
"city":"Geneina",
"country":"Sudan"},